iso3,iso2,adm1_code,name,type,centroid.lon,centroid.lat,capital,capital.lon,capital.lat,area_sqkm
ABW,AW,ABW,Aruba,country,-69.9666666667,12.5,Oranjestad,-70.03,12.52,169.76642238220072
ABW,AW,ABW,Aruba,country,-69.977,12.517,Oranjestad,-70.03,12.52,169.76642238220072
AFG,AF,AFG,Afghanistan,country,65.216,33.677,Kabul,69.18,34.52,642181.6163942092
AFG,AF,AFG,Afghanistan,country,65,33,Kabul,69.18,34.52,642181.6163942092
AGO,AO,AGO,Angola,country,18.5,-12.5,Luanda,13.22,-8.83,1244654.313546171
AGO,AO,AGO,Angola,country,17.544,-12.296,Luanda,13.22,-8.83,1244654.313546171
AIA,AI,AIA,Anguilla,country,-63.032,18.237,The Valley,-63.05,18.22,80.67384596823143
AIA,AI,AIA,Anguilla,country,-63.1666666667,18.25,The Valley,-63.05,18.22,80.67384596823143
ALA,AX,ALA,Aland Islands,country,19.952,60.198,NA,NA,NA,NA
ALA,AX,ALA,Aland Islands,country,20,60.25,NA,NA,NA,NA
ALB,AL,ALB,Albania,country,20,41,Tirana,19.82,41.32,28335.84516398934
ALB,AL,ALB,Albania,country,20.068,41.143,Tirana,19.82,41.32,28335.84516398934
AND,AD,AND,Andorra,country,1.5,42.5,Andorra la Vella,1.52,42.5,452.24793683157947
AND,AD,AND,Andorra,country,1.576,42.549,Andorra la Vella,1.52,42.5,452.24793683157947
ANT,NA,ANT,ANT,country,-68.87,12.123,NA,NA,NA,NA
ARE,AE,ARE,United Arab Emirates,country,54,24,Abu Dhabi,54.37,24.47,71084.63633494375
ARE,AE,ARE,United Arab Emirates,country,54.163,23.549,Abu Dhabi,54.37,24.47,71084.63633494375
ARG,AR,ARG,Argentina,country,-65.167,-35.377,Buenos Aires,-58.67,-34.58,2784305.9189470923
ARG,AR,ARG,Argentina,country,-64,-34,Buenos Aires,-58.67,-34.58,2784305.9189470923
ARM,AM,ARM,Armenia,country,45,40,Yerevan,44.5,40.17,29588.31031852631
ARM,AM,ARM,Armenia,country,44.563,40.534,Yerevan,44.5,40.17,29588.31031852631
ASM,AS,ASM,American Samoa,country,-170.73,-14.318,Pago Pago,-170.7,-14.27,180.3056963678391
ASM,AS,ASM,American Samoa,country,-170,-14.3333333333,Pago Pago,-170.7,-14.27,180.3056963678391
ATA,AQ,ATA,Antarctica,country,0,-90,NA,NA,NA,12358174.388790991
ATA,AQ,ATA,Antarctica,country,21.304,-80.446,NA,NA,NA,12358174.388790991
ATF,TF,ATF,French Southern Territories,country,77.5333333333,-37.8333333333,NA,NA,NA,7279.985796449041
ATF,TF,ATF,French Southern Territories,country,69.117,-49.302,NA,NA,NA,7279.985796449041
ATG,AG,ATG,Antigua & Barbuda,country,-61.8,17.05,Saint Johns,-61.85,17.12,451.48018877323005
ATG,AG,ATG,Antigua & Barbuda,country,-61.783,17.078,Saint Johns,-61.85,17.12,451.48018877323005
AUS,AU,AUS,Australia,country,133,-27,Canberra,149.13,-35.27,7691175.090399871
AUS,AU,AUS,Australia,country,136.189,-24.973,Canberra,149.13,-35.27,7691175.090399871
AUT,AT,AUT,Austria,country,13.3333333333,47.3333333333,Vienna,16.37,48.2,83993.196879589
AUT,AT,AUT,Austria,country,14.912,47.683,Vienna,16.37,48.2,83993.196879589
AZE,AZ,AZE,Azerbaijan,country,47.395,40.43,Baku,49.87,40.38,86249.80023303672
AZE,AZ,AZE,Azerbaijan,country,47.5,40.5,Baku,49.87,40.38,86249.80023303672
BDI,BI,BDI,Burundi,country,30,-3.5,Bujumbura,29.35,-3.37,27041.26629610865
BDI,BI,BDI,Burundi,country,29.887,-3.356,Bujumbura,29.35,-3.37,27041.26629610865
BEL,BE,BEL,Belgium,country,4.664,50.643,Brussels,4.33,50.83,30669.830511667642
BEL,BE,BEL,Belgium,country,4,50.8333333333,Brussels,4.33,50.83,30669.830511667642
BEN,BJ,BEN,Benin,country,2.25,9.5,Porto-Novo,2.62,6.48,116113.30895446315
BEN,BJ,BEN,Benin,country,2.469,10.541,Porto-Novo,2.62,6.48,116113.30895446315
BES,BQ,BES,Caribbean Netherlands,country,-68.25,12.1666666667,NA,NA,NA,NA
BFA,BF,BFA,Burkina Faso,country,-1.74,12.278,Ouagadougou,-1.52,12.37,272769.396656721
BFA,BF,BFA,Burkina Faso,country,-2,13,Ouagadougou,-1.52,12.37,272769.396656721
BGD,BD,BGD,Bangladesh,country,90,24,Dhaka,90.4,23.72,136903.67805500666
BGD,BD,BGD,Bangladesh,country,89.941,24.218,Dhaka,90.4,23.72,136903.67805500666
BGR,BG,BGR,Bulgaria,country,25,43,Sofia,23.32,42.68,112760.6938197593
BGR,BG,BGR,Bulgaria,country,25.231,42.761,Sofia,23.32,42.68,112760.6938197593
BHR,BH,BHR,Bahrain,country,50.55,26,Manama,50.57,26.23,584.9397795935516
BHR,BH,BHR,Bahrain,country,50.562,26.019,Manama,50.57,26.23,584.9397795935516
BHS,BS,BHS,Bahamas,country,-76,24.25,Nassau,-77.35,25.08,12592.697860504082
BHS,BS,BHS,Bahamas,country,-78.014,24.628,Nassau,-77.35,25.08,12592.697860504082
BIH,BA,BIH,Bosnia & Herzegovina,country,17.786,44.169,Sarajevo,18.42,43.87,51826.537863392885
BIH,BA,BIH,Bosnia & Herzegovina,country,18,44,Sarajevo,18.42,43.87,51826.537863392885
BLM,BL,BLM,St. Barthelemy,country,-63.043,18.04,NA,NA,NA,24.423261174697878
BLM,BL,BLM,St. Barthelemy,country,-62.833333,17.9,NA,NA,NA,24.423261174697878
BLR,BY,BLR,Belarus,country,28.047,53.54,Minsk,27.57,53.9,207499.13339444195
BLR,BY,BLR,Belarus,country,28,53,Minsk,27.57,53.9,207499.13339444195
BLZ,BZ,BLZ,Belize,country,-88.602,17.219,Belmopan,-88.77,17.25,22299.42219573088
BLZ,BZ,BLZ,Belize,country,-88.75,17.25,Belmopan,-88.77,17.25,22299.42219573088
BMU,BM,BMU,Bermuda,country,-64.75,32.3333333333,Hamilton,-64.78,32.28,62.302165719231844
BMU,BM,BMU,Bermuda,country,-64.709,32.336,Hamilton,-64.78,32.28,62.302165719231844
BOL,BO,BOL,Bolivia,country,-64.671,-16.715,La Paz,-68.15,-16.5,1086810.6457342159
BOL,BO,BOL,Bolivia,country,-65,-17,La Paz,-68.15,-16.5,1086810.6457342159
BRA,BR,BRA,Brazil,country,-53.089,-10.772,Brasilia,-47.92,-15.78,8472669.678377096
BRA,BR,BRA,Brazil,country,-55,-10,Brasilia,-47.92,-15.78,8472669.678377096
BRB,BB,BRB,Barbados,country,-59.5333333333,13.1666666667,Bridgetown,-59.62,13.1,444.2213241323988
BRB,BB,BRB,Barbados,country,-59.559,13.153,Bridgetown,-59.62,13.1,444.2213241323988
BRN,BN,BRN,Brunei,country,114.666666667,4.5,Bandar Seri Begawan,114.93,4.88,5716.69325911628
BRN,BN,BRN,Brunei,country,114.591,4.468,Bandar Seri Begawan,114.93,4.88,5716.69325911628
BTN,BT,BTN,Bhutan,country,90.429,27.415,Thimphu,89.63,27.47,40365.36421684413
BTN,BT,BTN,Bhutan,country,90.5,27.5,Thimphu,89.63,27.47,40365.36421684413
BVT,BV,BVT,Bouvet Island,country,3.412,-54.422,NA,NA,NA,NA
BVT,BV,BVT,Bouvet Island,country,3.4,-54.4333333333,NA,NA,NA,NA
BWA,BW,BWA,Botswana,country,23.815,-22.182,Gaborone,25.9,-24.63,579029.2005460369
BWA,BW,BWA,Botswana,country,24,-22,Gaborone,25.9,-24.63,579029.2005460369
CAF,CF,CAF,Central African Republic,country,21,7,Bangui,18.58,4.37,617984.2399580368
CAF,CF,CAF,Central African Republic,country,20.483,6.571,Bangui,18.58,4.37,617984.2399580368
CAN,CA,CAN,Canada,country,-95,60,Ottawa,-75.7,45.42,9945527.764985083
CAN,CA,CAN,Canada,country,-109.433,59.081,Ottawa,-75.7,45.42,9945527.764985083
CCK,CC,CCK,Cocos (Keeling) Islands,country,96.8333333333,-12.5,West Island,96.83,-12.17,NA
CCK,CC,CCK,Cocos (Keeling) Islands,country,96.839,-12.173,West Island,96.83,-12.17,NA
CHE,CH,CHE,Switzerland,country,7.908,46.861,Bern,7.47,46.92,41435.79877039148
CHE,CH,CHE,Switzerland,country,8,47,Bern,7.47,46.92,41435.79877039148
CHL,CL,CHL,Chile,country,-71,-30,Santiago,-70.67,-33.45,736592.7499003441
CHL,CL,CHL,Chile,country,-69.433,-23.389,Santiago,-70.67,-33.45,736592.7499003441
CHN,CN,CHN,China,country,105,35,Beijing,116.38,39.92,9374591.216965673
CHN,CN,CHN,China,country,106.514,33.42,Beijing,116.38,39.92,9374591.216965673
CIV,CI,CIV,Cote d'Ivoire,country,-5.556,7.632,Yamoussoukro,-5.27,6.82,320677.15691769694
CIV,CI,CIV,Cote d'Ivoire,country,-5,8,Yamoussoukro,-5.27,6.82,320677.15691769694
CMR,CM,CMR,Cameroon,country,12,6,Yaounde,11.52,3.87,464319.27834895253
CMR,CM,CMR,Cameroon,country,12.277,5.133,Yaounde,11.52,3.87,464319.27834895253
COD,CD,COD,Congo - Kinshasa,country,25,0.0166666666667,Kinshasa,15.3,-4.32,2325240.4236477143
COD,CD,COD,Congo - Kinshasa,country,23.654,-2.876,Kinshasa,15.3,-4.32,2325240.4236477143
COG,CG,COG,Congo - Brazzaville,country,15,-1,Brazzaville,15.28,-4.25,344888.6767348834
COG,CG,COG,Congo - Brazzaville,country,15.986,-0.055,Brazzaville,15.28,-4.25,344888.6767348834
COK,CK,COK,Cook Islands,country,-159.766666667,-21.2333333333,Avarua,-159.77,-21.2,191.1318923077924
COK,CK,COK,Cook Islands,country,-159.782,-21.219,Avarua,-159.77,-21.2,191.1318923077924
COL,CO,COL,Colombia,country,-73.076,3.9,Bogota,-74.08,4.6,1135117.8781117965
COL,CO,COL,Colombia,country,-72,4,Bogota,-74.08,4.6,1135117.8781117965
COM,KM,COM,Comoros,country,44.25,-12.1666666667,Moroni,43.23,-11.7,1672.2269205270734
COM,KM,COM,Comoros,country,43.337,-11.758,Moroni,43.23,-11.7,1672.2269205270734
CPV,CV,CPV,Cape Verde,country,-24,16,Praia,-23.52,14.92,3883.1427075028528
CPV,CV,CPV,Cape Verde,country,-23.634,15.071,Praia,-23.52,14.92,3883.1427075028528
CRI,CR,CRI,Costa Rica,country,-83.946,9.971,San Jose,-84.08,9.93,51144.33533147565
CRI,CR,CRI,Costa Rica,country,-84,10,San Jose,-84.08,9.93,51144.33533147565
CUB,CU,CUB,Cuba,country,-80,21.5,Havana,-82.35,23.12,109929.18207741623
CUB,CU,CUB,Cuba,country,-77.781,21.297,Havana,-82.35,23.12,109929.18207741623
CUW,CW,CUW,Curacao,country,-69,12.1666666667,NA,NA,NA,463.2502195446062
CXR,CX,CXR,Christmas Island,country,105.704,-10.444,The Settlement,105.72,-10.42,NA
CXR,CX,CXR,Christmas Island,country,105.666666667,-10.5,The Settlement,105.72,-10.42,NA
CYM,KY,CYM,Cayman Islands,country,-81.198,19.314,George Town,-81.38,19.3,309.19646687841606
CYM,KY,CYM,Cayman Islands,country,-80.5,19.5,George Town,-81.38,19.3,309.19646687841606
CYP,CY,CYP,Cyprus,country,33,35,Nicosia,33.37,35.17,5395.020997606832
CYP,CY,CYP,Cyprus,country,33.219,35.043,Nicosia,33.37,35.17,5395.020997606832
CZE,CZ,CZE,Czechia,country,15.338,49.743,Prague,14.47,50.08,78758.85950496417
CZE,CZ,CZE,Czechia,country,15.5,49.75,Prague,14.47,50.08,78758.85950496417
DEU,DE,DEU,Germany,country,9,51,Berlin,13.4,52.52,357673.8176546789
DEU,DE,DEU,Germany,country,9.851,51.11,Berlin,13.4,52.52,357673.8176546789
DJI,DJ,DJI,Djibouti,country,42.516,11.9,Djibouti,43.15,11.58,21847.61409875067
DJI,DJ,DJI,Djibouti,country,43,11.5,Djibouti,43.15,11.58,21847.61409875067
DMA,DM,DMA,Dominica,country,-61.3333333333,15.4166666667,Roseau,-61.4,15.3,730.3125711240883
DMA,DM,DMA,Dominica,country,-61.356,15.475,Roseau,-61.4,15.3,730.3125711240883
DNK,DK,DNK,Denmark,country,10,56,Copenhagen,12.58,55.67,42696.43397568578
DNK,DK,DNK,Denmark,country,9.264,56.058,Copenhagen,12.58,55.67,42696.43397568578
DOM,DO,DOM,Dominican Republic,country,-70.6666666667,19,Santo Domingo,-69.9,18.47,48439.790109810456
DOM,DO,DOM,Dominican Republic,country,-70.729,19.015,Santo Domingo,-69.9,18.47,48439.790109810456
DZA,DZ,DZA,Algeria,country,2.632,28.163,Algiers,3.05,36.75,2308857.817784158
DZA,DZ,DZA,Algeria,country,3,28,Algiers,3.05,36.75,2308857.817784158
ECU,EC,ECU,Ecuador,country,-78.497,-1.385,Quito,-78.5,-0.22,255014.21488574092
ECU,EC,ECU,Ecuador,country,-77.5,-2,Quito,-78.5,-0.22,255014.21488574092
EGY,EG,EGY,Egypt,country,30,27,Cairo,31.25,30.05,1001078.5472864377
EGY,EG,EGY,Egypt,country,29.872,26.494,Cairo,31.25,30.05,1001078.5472864377
ERI,ER,ERI,Eritrea,country,39,15,Asmara ,38.93,15.33,122537.73880057433
ERI,ER,ERI,Eritrea,country,38.219,16.045,Asmara ,38.93,15.33,122537.73880057433
ESH,EH,ESH,Western Sahara,country,-13.706,24.554,NA,NA,NA,NA
ESH,EH,ESH,Western Sahara,country,-13,24.5,NA,NA,NA,NA
ESP,ES,ESP,Spain,country,-3.649,40.227,Madrid,-3.68,40.4,506884.11511566624
ESP,ES,ESP,Spain,country,-4,40,Madrid,-3.68,40.4,506884.11511566624
EST,EE,EST,Estonia,country,25.793,58.674,Tallinn,24.72,59.43,45819.03919607016
EST,EE,EST,Estonia,country,26,59,Tallinn,24.72,59.43,45819.03919607016
ETH,ET,ETH,Ethiopia,country,39.616,8.626,Addis Ababa,38.7,9.03,1127375.979708977
ETH,ET,ETH,Ethiopia,country,38,8,Addis Ababa,38.7,9.03,1127375.979708977
FIN,FI,FIN,Finland,country,26.272,64.504,Helsinki,24.93,60.17,333059.05525200185
FIN,FI,FIN,Finland,country,26,64,Helsinki,24.93,60.17,333059.05525200185
FJI,FJ,FJI,Fiji,country,177.974,-17.819,Suva,178.42,-18.13,18930.08333615292
FJI,FJ,FJI,Fiji,country,175,-18,Suva,178.42,-18.13,18930.08333615292
FLK,FK,FLK,Falkland Islands,country,-58.694,-51.665,Stanley,-57.85,-51.7,11597.223908080165
FLK,FK,FLK,Falkland Islands,country,-59,-51.75,Stanley,-57.85,-51.7,11597.223908080165
FRA,FR,FRA,France,country,2,46,Paris,2.33,48.87,636758.5293095022
FRA,FR,FRA,France,country,2.55,46.565,Paris,2.33,48.87,636758.5293095022
FRO,FO,FRO,Faroe Islands,country,-7,62,Torshavn,-6.77,62,1328.521588833648
FRO,FO,FRO,Faroe Islands,country,-6.864,62.05,Torshavn,-6.77,62,1328.521588833648
FSM,FM,FSM,Micronesia (Federated States of),country,158.235,6.883,Palikir,158.15,6.92,633.8453645261274
FSM,FM,FSM,Micronesia (Federated States of),country,158.25,6.91666666667,Palikir,158.15,6.92,633.8453645261274
GAB,GA,GAB,Gabon,country,11.797,-0.591,Libreville,9.45,0.38,259968.48468844334
GAB,GA,GAB,Gabon,country,11.75,-1,Libreville,9.45,0.38,259968.48468844334
GBR,GB,GBR,United Kingdom,country,-2,54,London,-0.08,51.5,243783.211052871
GBR,GB,GBR,United Kingdom,country,-2.9,54.16,London,-0.08,51.5,243783.211052871
GEO,GE,GEO,Georgia,country,43.518,42.176,Tbilisi,44.83,41.68,69570.72579287778
GEO,GE,GEO,Georgia,country,43.5,42,Tbilisi,44.83,41.68,69570.72579287778
GGY,GG,GGY,Guernsey,country,-2.58333333333,49.4666666667,Saint Peter Port,-2.53,49.45,73.98167691376233
GGY,GG,GGY,Guernsey,country,-2.576,49.459,Saint Peter Port,-2.53,49.45,73.98167691376233
GHA,GH,GHA,Ghana,country,-1.207,7.96,Accra,-0.22,5.55,238668.6769644392
GHA,GH,GHA,Ghana,country,-2,8,Accra,-0.22,5.55,238668.6769644392
GIB,GI,GIB,Gibraltar,country,-5.345,36.138,Gibraltar,-5.35,36.13,3.6923712199048997
GIB,GI,GIB,Gibraltar,country,-5.35,36.1333333333,Gibraltar,-5.35,36.13,3.6923712199048997
GIN,GN,GIN,Guinea,country,-10,11,Conakry,-13.7,9.5,244301.98009354426
GIN,GN,GIN,Guinea,country,-10.942,10.439,Conakry,-13.7,9.5,244301.98009354426
GLP,GP,GLP,Guadeloupe,country,-61.441,16.286,NA,NA,NA,NA
GLP,GP,GLP,Guadeloupe,country,-61.5833333333,16.25,NA,NA,NA,NA
GMB,GM,GMB,Gambia,country,-15.386,13.453,Banjul,-16.57,13.45,10500.897039039673
GMB,GM,GMB,Gambia,country,-16.5666666667,13.4666666667,Banjul,-16.57,13.45,10500.897039039673
GNB,GW,GNB,Guinea-Bissau,country,-15,12,Bissau,-15.58,11.85,32829.628073843596
GNB,GW,GNB,Guinea-Bissau,country,-14.651,12.125,Bissau,-15.58,11.85,32829.628073843596
GNQ,GQ,GNQ,Equatorial Guinea,country,10,2,Malabo,8.78,3.75,26671.690857533435
GNQ,GQ,GNQ,Equatorial Guinea,country,10.488,1.607,Malabo,8.78,3.75,26671.690857533435
GRC,GR,GRC,Greece,country,22,39,Athens,23.73,37.98,131353.43567330888
GRC,GR,GRC,Greece,country,21.766,39.666,Athens,23.73,37.98,131353.43567330888
GRD,GD,GRD,Grenada,country,-61.678,12.118,Saint Georges,-61.75,12.05,347.26326182813665
GRD,GD,GRD,Grenada,country,-61.6666666667,12.1166666667,Saint Georges,-61.75,12.05,347.26326182813665
GRL,GL,GRL,Greenland,country,-40,72,Nuuk,-51.75,64.18,2154380.7913027797
GRL,GL,GRL,Greenland,country,-41.391,74.719,Nuuk,-51.75,64.18,2154380.7913027797
GTM,GT,GTM,Guatemala,country,-90.25,15.5,Guatemala City,-90.52,14.62,108811.24580904085
GTM,GT,GTM,Guatemala,country,-90.398,15.256,Guatemala City,-90.52,14.62,108811.24580904085
GUF,GF,GUF,French Guiana,country,-53.241,3.924,NA,NA,NA,NA
GUF,GF,GUF,French Guiana,country,-53,4,NA,NA,NA,NA
GUM,GU,GUM,Guam,country,144.707,13.385,Hagatna,144.73,13.47,564.2033872157984
GUM,GU,GUM,Guam,country,144.783333333,13.4666666667,Hagatna,144.73,13.47,564.2033872157984
GUY,GY,GUY,Guyana,country,-59,5,Georgetown,-58.15,6.8,211213.69761780626
GUY,GY,GUY,Guyana,country,-58.974,4.792,Georgetown,-58.15,6.8,211213.69761780626
HKG,HK,HKG,Hong Kong SAR China,country,114.129,22.423,NA,NA,NA,1036.2047445663206
HKG,HK,HKG,Hong Kong SAR China,country,114.166666667,22.25,NA,NA,NA,1036.2047445663206
HMD,HM,HMD,Heard & McDonald Islands,country,72.5166666667,-53.1,NA,NA,NA,394.8631323674507
HMD,HM,HMD,Heard & McDonald Islands,country,73.507,-53.111,NA,NA,NA,394.8631323674507
HND,HN,HND,Honduras,country,-86.5,15,Tegucigalpa,-87.22,14.1,112236.7314052547
HND,HN,HND,Honduras,country,-86.863,14.819,Tegucigalpa,-87.22,14.1,112236.7314052547
HRV,HR,HRV,Croatia,country,15.5,45.1666666667,Zagreb,16,45.8,55077.44290253139
HRV,HR,HRV,Croatia,country,16.693,45.723,Zagreb,16,45.8,55077.44290253139
HTI,HT,HTI,Haiti,country,-72.4166666667,19,Port-au-Prince,-72.33,18.53,26891.569007692582
HTI,HT,HTI,Haiti,country,-72.278,19.142,Port-au-Prince,-72.33,18.53,26891.569007692582
HUN,HU,HUN,Hungary,country,20,47,Budapest,19.08,47.5,93200.95199920457
HUN,HU,HUN,Hungary,country,19.134,47.07,Budapest,19.08,47.5,93200.95199920457
IDN,ID,IDN,Indonesia,country,114.252,-0.976,Jakarta,106.82,-6.17,1879827.3748788622
IDN,ID,IDN,Indonesia,country,120,-5,Jakarta,106.82,-6.17,1879827.3748788622
IMN,IM,IMN,Isle of Man,country,-4.527,54.229,Douglas,-4.48,54.15,574.8173931731901
IMN,IM,IMN,Isle of Man,country,-4.5,54.25,Douglas,-4.48,54.15,574.8173931731901
IND,IN,IND,India,country,79.619,22.881,New Delhi,77.2,28.6,3151452.491961143
IND,IN,IND,India,country,77,20,New Delhi,77.2,28.6,3151452.491961143
IOT,IO,IOT,British Indian Ocean Territory,country,71.5,-6,NA,NA,NA,49.06066588711554
IOT,IO,IOT,British Indian Ocean Territory,country,72.416,-7.335,NA,NA,NA,49.06066588711554
IRL,IE,IRL,Ireland,country,-8,53,Dublin,-6.23,53.32,69445.01466838783
IRL,IE,IRL,Ireland,country,-8.152,53.177,Dublin,-6.23,53.32,69445.01466838783
IRN,IR,IRN,Iran,country,53,32,Tehran,51.42,35.7,1622510.1866869396
IRN,IR,IRN,Iran,country,54.301,32.565,Tehran,51.42,35.7,1622510.1866869396
IRQ,IQ,IRQ,Iraq,country,44,33,Baghdad,44.4,33.33,437366.9830915558
IRQ,IQ,IRQ,Iraq,country,43.772,33.048,Baghdad,44.4,33.33,437366.9830915558
ISL,IS,ISL,Iceland,country,-18,65,Reykjavik,-21.95,64.15,102390.07076428035
ISL,IS,ISL,Iceland,country,-18.48,64.764,Reykjavik,-21.95,64.15,102390.07076428035
ISR,IL,ISR,Israel,country,34.75,31.5,Jerusalem,35.23,31.77,21900.93235056281
ISR,IL,ISR,Israel,country,34.851,31.026,Jerusalem,35.23,31.77,21900.93235056281
ITA,IT,ITA,Italy,country,10.44,44.931,Rome,12.48,41.9,301185.0685934983
ITA,IT,ITA,Italy,country,12.8333333333,42.8333333333,Rome,12.48,41.9,301185.0685934983
JAM,JM,JAM,Jamaica,country,-77.5,18.25,Kingston,-76.8,18,11032.896473883871
JAM,JM,JAM,Jamaica,country,-77.32,18.151,Kingston,-76.8,18,11032.896473883871
JEY,JE,JEY,Jersey,country,-2.16666666667,49.25,Saint Helier,-2.1,49.18,119.05032234631538
JEY,JE,JEY,Jersey,country,-2.129,49.219,Saint Helier,-2.1,49.18,119.05032234631538
JOR,JO,JOR,Jordan,country,36,31,Amman,35.93,31.95,88863.04758601561
JOR,JO,JOR,Jordan,country,36.319,30.703,Amman,35.93,31.95,88863.04758601561
JPN,JP,JPN,Japan,country,138,36,Tokyo,139.75,35.68,373508.03418055526
JPN,JP,JPN,Japan,country,139.068,36.491,Tokyo,139.75,35.68,373508.03418055526
KAZ,KZ,KAZ,Kazakhstan,country,67.301,48.16,Astana,71.42,51.17,2714263.3685441692
KAZ,KZ,KAZ,Kazakhstan,country,68,48,Astana,71.42,51.17,2714263.3685441692
KEN,KE,KEN,Kenya,country,37.858,0.53,Nairobi,36.82,-1.28,585702.5843625352
KEN,KE,KEN,Kenya,country,38,1,Nairobi,36.82,-1.28,585702.5843625352
KGZ,KG,KGZ,Kyrgyzstan,country,74.555,41.465,Bishkek,74.6,42.87,198990.45591103574
KGZ,KG,KGZ,Kyrgyzstan,country,75,41,Bishkek,74.6,42.87,198990.45591103574
KHM,KH,KHM,Cambodia,country,105,13,Phnom Penh,104.92,11.55,181059.6108326335
KHM,KH,KHM,Cambodia,country,104.564,12.714,Phnom Penh,104.92,11.55,181059.6108326335
KIR,KI,KIR,Kiribati,country,173,1.41666666667,Tarawa,173.03,1.35,949.8634513214655
KIR,KI,KIR,Kiribati,country,175.036,-1.508,Tarawa,173.03,1.35,949.8634513214655
KNA,KN,KNA,St. Kitts & Nevis,country,-62.75,17.3333333333,Basseterre,-62.72,17.3,264.1305694796238
KNA,KN,KNA,St. Kitts & Nevis,country,-62.769,17.34,Basseterre,-62.72,17.3,264.1305694796238
KOR,KR,KOR,South Korea,country,128.103,36.504,Seoul,126.98,37.55,98544.42882167482
KOR,KR,KOR,South Korea,country,127.5,37,Seoul,126.98,37.55,98544.42882167482
KWT,KW,KWT,Kuwait,country,47.376,29.476,Kuwait City,47.97,29.37,17474.020396605734
KWT,KW,KWT,Kuwait,country,47.966667,29.366667,Kuwait City,47.97,29.37,17474.020396605734
LAO,LA,LAO,Laos,country,102.471,19.905,Vientiane ,102.6,17.97,228113.97485040524
LAO,LA,LAO,Laos,country,105,18,Vientiane ,102.6,17.97,228113.97485040524
LBN,LB,LBN,Lebanon,country,35.8333333333,33.8333333333,Beirut,35.5,33.87,10000.011414743245
LBN,LB,LBN,Lebanon,country,35.888,33.92,Beirut,35.5,33.87,10000.011414743245
LBR,LR,LBR,Liberia,country,-9.5,6.5,Monrovia,-10.8,6.3,95298.1539476318
LBR,LR,LBR,Liberia,country,-9.657,6.682,Monrovia,-10.8,6.3,95298.1539476318
LBY,LY,LBY,Libya,country,18.023,27.044,Tripoli ,13.17,32.88,1623760.9003579712
LBY,LY,LBY,Libya,country,17,25,Tripoli ,13.17,32.88,1623760.9003579712
LCA,LC,LCA,St. Lucia,country,-60.969,13.898,Castries,-61,14,605.1306728761933
LCA,LC,LCA,St. Lucia,country,-60.9666666667,13.8833333333,Castries,-61,14,605.1306728761933
LIE,LI,LIE,Liechtenstein,country,9.555,47.153,Vaduz,9.52,47.13,137.24980376003361
LIE,LI,LIE,Liechtenstein,country,9.53333333333,47.2666666667,Vaduz,9.52,47.13,137.24980376003361
LKA,LK,LKA,Sri Lanka,country,81,7,Colombo,79.83,6.92,66291.18329842921
LKA,LK,LKA,Sri Lanka,country,80.704,7.612,Colombo,79.83,6.92,66291.18329842921
LSO,LS,LSO,Lesotho,country,28.243,-29.581,Maseru,27.48,-29.32,30106.518072275434
LSO,LS,LSO,Lesotho,country,28.5,-29.5,Maseru,27.48,-29.32,30106.518072275434
LTU,LT,LTU,Lithuania,country,24,56,Vilnius,25.32,54.68,64939.29751757669
LTU,LT,LTU,Lithuania,country,23.897,55.336,Vilnius,25.32,54.68,64939.29751757669
LUX,LU,LUX,Luxembourg,country,6.088,49.771,Luxembourg,6.12,49.6,2608.4689301204567
LUX,LU,LUX,Luxembourg,country,6.16666666667,49.75,Luxembourg,6.12,49.6,2608.4689301204567
LVA,LV,LVA,Latvia,country,25,57,Riga,24.1,56.95,64576.403598551624
LVA,LV,LVA,Latvia,country,25.641,56.858,Riga,24.1,56.95,64576.403598551624
MAC,MO,MAC,Macau SAR China,country,113.55,22.1666666667,NA,NA,NA,30.076684162869036
MAC,MO,MAC,Macau SAR China,country,113.545,22.2,NA,NA,NA,30.076684162869036
MAF,MF,MAF,Saint Martin (French part),country,-63.041,18.094,Marigot,-63.08,18.07,68.27952917497707
MAF,MF,MAF,Saint Martin (French part),country,-63.06,18.075278,Marigot,-63.08,18.07,68.27952917497707
MAR,MA,MAR,Morocco,country,-5,32,Rabat,-6.82,34.02,591745.2469115739
MAR,MA,MAR,Morocco,country,-5.758,32.706,Rabat,-6.82,34.02,591745.2469115739
MCO,MC,MCO,Monaco,country,7.412,43.75,Monaco,7.42,43.73,18.83968030350399
MCO,MC,MCO,Monaco,country,7.419722,43.732778,Monaco,7.42,43.73,18.83968030350399
MDA,MD,MDA,Moldova,country,29,47,Chisinau,28.85,47,33206.47762337327
MDA,MD,MDA,Moldova,country,28.599,47.193,Chisinau,28.85,47,33206.47762337327
MDG,MG,MDG,Madagascar,country,47,-20,Antananarivo,47.52,-18.92,592983.8842587469
MDG,MG,MDG,Madagascar,country,46.706,-19.374,Antananarivo,47.52,-18.92,592983.8842587469
MDV,MV,MDV,Maldives,country,73,3.25,Male,73.5,4.17,108.74231101540427
MDV,MV,MDV,Maldives,country,72.92,3.548,Male,73.5,4.17,108.74231101540427
MEX,MX,MEX,Mexico,country,-102,23,Mexico City ,-99.13,19.43,1957847.0583796725
MEX,MX,MEX,Mexico,country,-102.535,23.951,Mexico City ,-99.13,19.43,1957847.0583796725
MHL,MH,MHL,Marshall Islands,country,168,9,Majuro,171.38,7.1,164.8223820920804
MHL,MH,MHL,Marshall Islands,country,168.963,7.595,Majuro,171.38,7.1,164.8223820920804
MKD,MK,MKD,Macedonia,country,21.698,41.6,Skopje,21.43,42,25385.269367754358
MKD,MK,MKD,Macedonia,country,22,41.8333333333,Skopje,21.43,42,25385.269367754358
MLI,ML,MLI,Mali,country,-4,17,Bamako,-8,12.65,1252723.65729053
MLI,ML,MLI,Mali,country,-3.524,17.35,Bamako,-8,12.65,1252723.65729053
MLT,MT,MLT,Malta,country,14.5833333333,35.8333333333,Valletta,14.5,35.88,325.6880511236057
MLT,MT,MLT,Malta,country,14.442,35.89,Valletta,14.5,35.88,325.6880511236057
MMR,MM,MMR,Myanmar (Burma),country,98,22,Rangoon,96.15,16.8,663159.3007064887
MMR,MM,MMR,Myanmar (Burma),country,96.041,21.718,Rangoon,96.15,16.8,663159.3007064887
MNE,ME,MNE,Montenegro,country,19.254,42.792,Podgorica,19.27,42.43,13727.499653550689
MNE,ME,MNE,Montenegro,country,19.3,42.5,Podgorica,19.27,42.43,13727.499653550689
MNG,MN,MNG,Mongolia,country,105,46,Ulaanbaatar,106.92,47.92,1564648.9906362689
MNG,MN,MNG,Mongolia,country,102.876,46.056,Ulaanbaatar,106.92,47.92,1564648.9906362689
MNP,MP,MNP,Northern Mariana Islands,country,145.623,15.005,Saipan,145.75,15.2,579.3044095829808
MNP,MP,MNP,Northern Mariana Islands,country,145.75,15.2,Saipan,145.75,15.2,579.3044095829808
MOZ,MZ,MOZ,Mozambique,country,37.923,-14.422,Maputo,32.58,-25.95,788448.5360396466
MOZ,MZ,MOZ,Mozambique,country,35,-18.25,Maputo,32.58,-25.95,788448.5360396466
MRT,MR,MRT,Mauritania,country,-12,20,Nouakchott,-15.97,18.07,1036391.8235232013
MRT,MR,MRT,Mauritania,country,-10.332,20.26,Nouakchott,-15.97,18.07,1036391.8235232013
MSR,MS,MSR,Montserrat,country,-62.187,16.736,Plymouth,-62.22,16.7,99.5971440362947
MSR,MS,MSR,Montserrat,country,-62.2,16.75,Plymouth,-62.22,16.7,99.5971440362947
MTQ,MQ,MTQ,Martinique,country,-61.0833333333,14.6,NA,NA,NA,NA
MTQ,MQ,MTQ,Martinique,country,-61.021,14.653,NA,NA,NA,NA
MUS,MU,MUS,Mauritius,country,57.583,-20.255,Port Louis,57.48,-20.15,2014.4396132592276
MUS,MU,MUS,Mauritius,country,57.55,-20.2833333333,Port Louis,57.48,-20.15,2014.4396132592276
MWI,MW,MWI,Malawi,country,34,-13.5,Lilongwe,33.78,-13.97,119397.76652705297
MWI,MW,MWI,Malawi,country,33.808,-13.4,Lilongwe,33.78,-13.97,119397.76652705297
MYS,MY,MYS,Malaysia,country,112.5,2.5,Kuala Lumpur,101.7,3.17,327884.8886786309
MYS,MY,MYS,Malaysia,country,102.195,4.201,Kuala Lumpur,101.7,3.17,327884.8886786309
MYT,YT,MYT,Mayotte,country,45.1666666667,-12.8333333333,NA,NA,NA,NA
MYT,YT,MYT,Mayotte,country,45.155,-12.777,NA,NA,NA,NA
NAM,"NA",NAM,Namibia,country,17,-22,Windhoek,17.08,-22.57,822713.0501869222
NAM,"NA",NAM,Namibia,country,17.218,-22.133,Windhoek,17.08,-22.57,822713.0501869222
NCL,NC,NCL,New Caledonia,country,165.5,-21.5,Noumea,166.45,-22.27,18841.034983433838
NCL,NC,NCL,New Caledonia,country,165.447,-21.359,Noumea,166.45,-22.27,18841.034983433838
NER,NE,NER,Niger,country,9.398,17.426,Niamey,2.12,13.52,1181300.8923377672
NER,NE,NER,Niger,country,8,16,Niamey,2.12,13.52,1181300.8923377672
NFK,NF,NFK,Norfolk Island,country,167.95,-29.0333333333,Kingston,167.97,-29.05,41.146497360852244
NFK,NF,NFK,Norfolk Island,country,167.953,-29.037,Kingston,167.97,-29.05,41.146497360852244
NGA,NG,NGA,Nigeria,country,8,10,Abuja,7.53,9.08,907501.0844204949
NGA,NG,NGA,Nigeria,country,8.105,9.594,Abuja,7.53,9.08,907501.0844204949
NIC,NI,NIC,Nicaragua,country,-85,13,Managua,-86.25,12.13,128691.43282995676
NIC,NI,NIC,Nicaragua,country,-85.034,12.84,Managua,-86.25,12.13,128691.43282995676
NIU,NU,NIU,Niue,country,-169.866666667,-19.0333333333,Alofi,-169.92,-19.02,220.5712371115818
NIU,NU,NIU,Niue,country,-169.869,-19.052,Alofi,-169.92,-19.02,220.5712371115818
NLD,NL,NLD,Netherlands,country,5.389,52.077,Amsterdam,4.92,52.35,37397.73062549219
NLD,NL,NLD,Netherlands,country,5.75,52.5,Amsterdam,4.92,52.35,37397.73062549219
NOR,NO,NOR,Norway,country,8.74,61.152,Oslo,10.75,59.92,382066.5602031595
NOR,NO,NOR,Norway,country,10,62,Oslo,10.75,59.92,382066.5602031595
NPL,NP,NPL,Nepal,country,83.939,28.253,Kathmandu,85.32,27.72,147105.48971549707
NPL,NP,NPL,Nepal,country,84,28,Kathmandu,85.32,27.72,147105.48971549707
NRU,NR,NRU,Nauru,country,166.916666667,-0.533333333333,NA,NA,NA,28.76692206009218
NRU,NR,NRU,Nauru,country,166.93,-0.522,NA,NA,NA,28.76692206009218
NZL,NZ,NZL,New Zealand,country,174,-41,Wellington,174.78,-41.3,268494.5791221025
NZL,NZ,NZL,New Zealand,country,172.235,-42.634,Wellington,174.78,-41.3,268494.5791221025
OMN,OM,OMN,Oman,country,57,21,Muscat,58.58,23.62,311213.4541656622
OMN,OM,OMN,Oman,country,57.407,21.656,Muscat,58.58,23.62,311213.4541656622
PAK,PK,PAK,Pakistan,country,70,30,Islamabad,73.05,33.68,872939.2882954803
PAK,PK,PAK,Pakistan,country,69.386,29.967,Islamabad,73.05,33.68,872939.2882954803
PAN,PA,PAN,Panama,country,-80.92,8.384,Panama City,-79.53,8.97,74530.3083392666
PAN,PA,PAN,Panama,country,-80,9,Panama City,-79.53,8.97,74530.3083392666
PCN,PN,PCN,Pitcairn Islands,country,-128.316,-24.366,Adamstown,-130.08,-25.07,42.569755890356156
PCN,PN,PCN,Pitcairn Islands,country,-130.1,-25.0666666667,Adamstown,-130.08,-25.07,42.569755890356156
PER,PE,PER,Peru,country,-75.552,-9.326,Lima,-77.05,-12.05,1289866.4010943884
PER,PE,PER,Peru,country,-76,-10,Lima,-77.05,-12.05,1289866.4010943884
PHL,PH,PHL,Philippines,country,122,13,Manila,120.97,14.6,293237.4880448443
PHL,PH,PHL,Philippines,country,122.466,11.118,Manila,120.97,14.6,293237.4880448443
PLW,PW,PLW,Palau,country,134.5,7.5,Melekeok,134.63,7.48,491.9321840072223
PLW,PW,PLW,Palau,country,134.57,7.501,Melekeok,134.63,7.48,491.9321840072223
PNG,PG,PNG,Papua New Guinea,country,143.459,-5.949,Port Moresby,147.18,-9.45,NA
PNG,PG,PNG,Papua New Guinea,country,147,-6,Port Moresby,147.18,-9.45,NA
POL,PL,POL,Poland,country,20,52,Warsaw,21,52.25,313430.77287693263
POL,PL,POL,Poland,country,19.401,52.125,Warsaw,21,52.25,313430.77287693263
PRI,PR,PRI,Puerto Rico,country,-66.5,18.25,San Juan,-66.12,18.47,9005.976495638546
PRI,PR,PRI,Puerto Rico,country,-66.466,18.221,San Juan,-66.12,18.47,9005.976495638546
PRK,KP,PRK,North Korea,country,126.451,39.778,Pyongyang,125.75,39.02,122379.4003676106
PRK,KP,PRK,North Korea,country,127,40,Pyongyang,125.75,39.02,122379.4003676106
PRT,PT,PRT,Portugal,country,-8,39.5,Lisbon,-9.13,38.72,NA
PRT,PT,PRT,Portugal,country,-8.058,40.309,Lisbon,-9.13,38.72,NA
PRY,PY,PRY,Paraguay,country,-58,-23,Asuncion,-57.67,-25.27,399901.05470343813
PRY,PY,PRY,Paraguay,country,-58.391,-23.236,Asuncion,-57.67,-25.27,399901.05470343813
PSE,PS,PSE,Palestinian Territories,country,35.278,32.037,NA,NA,NA,NA
PSE,PS,PSE,Palestinian Territories,country,35.25,32,NA,NA,NA,NA
PYF,PF,PYF,French Polynesia,country,-140,-15,Papeete ,-149.57,-17.53,3336.547746896668
PYF,PF,PYF,French Polynesia,country,-149.462,-17.626,Papeete ,-149.57,-17.53,3336.547746896668
QAT,QA,QAT,Qatar,country,51.191,25.316,Doha,51.53,25.28,11150.106992136532
QAT,QA,QAT,Qatar,country,51.25,25.5,Doha,51.53,25.28,11150.106992136532
REU,RE,REU,Reunion,country,55.6,-21.1,NA,NA,NA,NA
REU,RE,REU,Reunion,country,55.538,-21.122,NA,NA,NA,NA
ROU,RO,ROU,Romania,country,25,46,Bucharest,26.1,44.43,236376.6560898297
ROU,RO,ROU,Romania,country,24.969,45.844,Bucharest,26.1,44.43,236376.6560898297
RUS,RU,RUS,Russia,country,100,60,Moscow,37.6,55.75,16980199.62053948
RUS,RU,RUS,Russia,country,96.689,61.988,Moscow,37.6,55.75,16980199.62053948
RWA,RW,RWA,Rwanda,country,30,-2,Kigali,30.05,-1.95,25305.054919012287
RWA,RW,RWA,Rwanda,country,29.917,-1.998,Kigali,30.05,-1.95,25305.054919012287
SAU,SA,SAU,Saudi Arabia,country,44.585,24.023,Riyadh,46.7,24.65,1921725.381316085
SAU,SA,SAU,Saudi Arabia,country,45,25,Riyadh,46.7,24.65,1921725.381316085
SDN,SD,SDN,Sudan,country,30,15,Khartoum,32.53,15.6,1857637.0669359493
SDN,SD,SDN,Sudan,country,30.05,13.832,Khartoum,32.53,15.6,1857637.0669359493
SEN,SN,SEN,Senegal,country,-14.881,15.013,Dakar,-17.63,14.73,196224.29707317977
SEN,SN,SEN,Senegal,country,-14,14,Dakar,-17.63,14.73,196224.29707317977
SGP,SG,SGP,Singapore,country,103.8,1.36666666667,Singapore,103.85,1.28,510.5031737010714
SGP,SG,SGP,Singapore,country,103.808,1.351,Singapore,103.85,1.28,510.5031737010714
SGS,GS,SGS,South Georgia & South Sandwich Islands,country,-36.891,-54.209,NA,NA,NA,3921.4841282731895
SGS,GS,SGS,South Georgia & South Sandwich Islands,country,-37,-54.5,NA,NA,NA,3921.4841282731895
SHN,SH,SHN,St. Helena,country,-5.71,-15.953,Jamestown,-5.72,-15.93,366.6607260858252
SHN,SH,SHN,St. Helena,country,-5.7,-15.95,Jamestown,-5.72,-15.93,366.6607260858252
SJM,SJ,SJM,Svalbard & Jan Mayen,country,18.374,78.83,Longyearbyen,15.63,78.22,NA
SJM,SJ,SJM,Svalbard & Jan Mayen,country,20,78,Longyearbyen,15.63,78.22,NA
SLB,SB,SLB,Solomon Islands,country,159,-8,Honiara,159.95,-9.43,27198.794740282905
SLB,SB,SLB,Solomon Islands,country,160.109,-9.611,Honiara,159.95,-9.43,27198.794740282905
SLE,SL,SLE,Sierra Leone,country,-11.5,8.5,Freetown,-13.23,8.48,71611.71499421634
SLE,SL,SLE,Sierra Leone,country,-11.792,8.56,Freetown,-13.23,8.48,71611.71499421634
SLV,SV,SLV,El Salvador,country,-88.866,13.736,San Salvador,-89.2,13.7,20539.229033657255
SLV,SV,SLV,El Salvador,country,-88.9166666667,13.8333333333,San Salvador,-89.2,13.7,20539.229033657255
SMR,SM,SMR,San Marino,country,12.4166666667,43.933333,San Marino,12.42,43.93,60.31713094507217
SMR,SM,SMR,San Marino,country,12.46,43.942,San Marino,12.42,43.93,60.31713094507217
SOM,SO,SOM,Somalia,country,49,10,Mogadishu,45.33,2.07,471815.00342042226
SOM,SO,SOM,Somalia,country,48.316,9.774,Mogadishu,45.33,2.07,471815.00342042226
SPM,PM,SPM,St. Pierre & Miquelon,country,-56.3333333333,46.8333333333,Saint-Pierre,-56.18,46.77,242.74984975668715
SPM,PM,SPM,St. Pierre & Miquelon,country,-56.325,47.042,Saint-Pierre,-56.18,46.77,242.74984975668715
SRB,RS,SRB,Serbia,country,20.806,44.032,Belgrade,20.5,44.83,77573.60378468432
SRB,RS,SRB,Serbia,country,21,44,Belgrade,20.5,44.83,77573.60378468432
SSD,SS,SSD,South Sudan,country,30,8,Juba,31.62,4.85,NA
STP,ST,STP,Sao Tome & Principe,country,7,1,Sao Tome,6.73,0.33,1037.1561366140731
STP,ST,STP,Sao Tome & Principe,country,6.629,0.201,Sao Tome,6.73,0.33,1037.1561366140731
SUR,SR,SUR,Suriname,country,-55.912,4.127,Paramaribo,-55.17,5.83,145123.53017072426
SUR,SR,SUR,Suriname,country,-56,4,Paramaribo,-55.17,5.83,145123.53017072426
SVK,SK,SVK,Slovakia,country,19.5,48.6666666667,Bratislava,17.12,48.15,48457.788850943936
SVK,SK,SVK,Slovakia,country,19.491,48.707,Bratislava,17.12,48.15,48457.788850943936
SVN,SI,SVN,Slovenia,country,14.8166666667,46.1166666667,Ljubljana,14.52,46.05,20327.278948233627
SVN,SI,SVN,Slovenia,country,14.827,46.124,Ljubljana,14.52,46.05,20327.278948233627
SWE,SE,SWE,Sweden,country,15,62,Stockholm,18.05,59.33,446178.44094333774
SWE,SE,SWE,Sweden,country,15.27,62.011,Stockholm,18.05,59.33,446178.44094333774
SWZ,SZ,SWZ,Swaziland,country,31.5,-26.5,Mbabane,31.13,-26.32,17111.84503911677
SWZ,SZ,SWZ,Swaziland,country,31.497,-26.562,Mbabane,31.13,-26.32,17111.84503911677
SXM,SX,SXM,Sint Maarten,country,-63.06667,18.04167,NA,NA,NA,23.358516925027608
SYC,SC,SYC,Seychelles,country,55.474,-4.647,Victoria,55.45,-4.62,435.6674565265611
SYC,SC,SYC,Seychelles,country,55.6666666667,-4.58333333333,Victoria,55.45,-4.62,435.6674565265611
SYR,SY,SYR,Syria,country,38,35,Damascus,36.3,33.5,185939.04840221372
SYR,SY,SYR,Syria,country,38.506,35.013,Damascus,36.3,33.5,185939.04840221372
TCA,TC,TCA,Turks & Caicos Islands,country,-71.95,21.902,Grand Turk,-71.13,21.47,445.2174997052877
TCA,TC,TCA,Turks & Caicos Islands,country,-71.5833333333,21.75,Grand Turk,-71.13,21.47,445.2174997052877
TCD,TD,TCD,Chad,country,19,15,NDjamena,15.03,12.1,1266282.335587437
TCD,TD,TCD,Chad,country,18.665,15.361,NDjamena,15.03,12.1,1266282.335587437
TGO,TG,TGO,Togo,country,1.081,8.799,Lome,1.22,6.12,56863.47734125389
TGO,TG,TGO,Togo,country,1.16666666667,8,Lome,1.22,6.12,56863.47734125389
THA,TH,THA,Thailand,country,100.844,15.7,Bangkok,100.52,13.75,514453.67794878985
THA,TH,THA,Thailand,country,100,15,Bangkok,100.52,13.75,514453.67794878985
TJK,TJ,TJK,Tajikistan,country,69.42,38.665,Dushanbe,68.77,38.55,142238.25603156321
TJK,TJ,TJK,Tajikistan,country,71,39,Dushanbe,68.77,38.55,142238.25603156321
TKL,TK,TKL,Tokelau,country,-171.853,-9.193,NA,NA,NA,NA
TKL,TK,TKL,Tokelau,country,-172,-9,NA,NA,NA,NA
TKM,TM,TKM,Turkmenistan,country,59.384,39.122,Ashgabat,58.38,37.95,470850.3991076106
TKM,TM,TKM,Turkmenistan,country,60,40,Ashgabat,58.38,37.95,470850.3991076106
TLS,TL,TLS,Timor-Leste,country,125.916666667,-8.83333333333,Dili,125.6,-8.58,15082.235169431544
TLS,TL,TLS,Timor-Leste,country,125.878,-8.822,Dili,125.6,-8.58,15082.235169431544
TON,TO,TON,Tonga,country,-175,-20,Nukualofa,-175.2,-21.13,603.113108349627
TON,TO,TON,Tonga,country,-175.185,-21.202,Nukualofa,-175.2,-21.13,603.113108349627
TTO,TT,TTO,Trinidad & Tobago,country,-61,11,Port of Spain,-61.52,10.65,5122.926215130053
TTO,TT,TTO,Trinidad & Tobago,country,-61.253,10.468,Port of Spain,-61.52,10.65,5122.926215130053
TUN,TN,TUN,Tunisia,country,9,34,Tunis,10.18,36.8,156611.6936003666
TUN,TN,TUN,Tunisia,country,9.596,35.383,Tunis,10.18,36.8,156611.6936003666
TUR,TR,TUR,Turkey,country,35.179,39.061,Ankara,32.87,39.93,780079.652511871
TUR,TR,TUR,Turkey,country,35,39,Ankara,32.87,39.93,780079.652511871
TUV,TV,TUV,Tuvalu,country,178,-8,Funafuti,179.22,-8.52,23.018500347682377
TUV,TV,TUV,Tuvalu,country,179.219,-8.514,Funafuti,179.22,-8.52,23.018500347682377
TWN,TW,TWN,Taiwan,country,120.946,23.754,Taipei,121.52,25.03,36197.77371986479
TWN,TW,TWN,Taiwan,country,121,23.5,Taipei,121.52,25.03,36197.77371986479
TZA,TZ,TZA,Tanzania,country,35,-6,Dodoma,39.28,-6.8,941505.9871227486
TZA,TZ,TZA,Tanzania,country,34.823,-6.27,Dodoma,39.28,-6.8,941505.9871227486
UGA,UG,UGA,Uganda,country,32,1,Kampala,32.55,0.32,241853.6301856624
UGA,UG,UGA,Uganda,country,32.386,1.28,Kampala,32.55,0.32,241853.6301856624
UKR,UA,UKR,Ukraine,country,32,49,Kyiv (Kiev),30.52,50.43,571998.5759768161
UKR,UA,UKR,Ukraine,country,31.388,49.016,Kyiv (Kiev),30.52,50.43,571998.5759768161
UMI,UM,UMI,United States Minor Outlying Islands (the),country,-169.516666667,16.75,NA,NA,NA,28.004552774807518
UMI,UM,UMI,United States Minor Outlying Islands (the),country,-160.027,-0.385,NA,NA,NA,28.004552774807518
URY,UY,URY,Uruguay,country,-56.012,-32.8,Montevideo,-56.17,-34.85,177345.12616579118
URY,UY,URY,Uruguay,country,-56,-33,Montevideo,-56.17,-34.85,177345.12616579118
USA,US,USA,United States,country,-97,38,"Washington, DC",-77.03,38.88,9464330.067774186
USA,US,USA,United States,country,-98.606,39.622,"Washington, DC",-77.03,38.88,9464330.067774186
UZB,UZ,UZB,Uzbekistan,country,63.17,41.75,Tashkent,69.25,41.32,447830.15943964483
UZB,UZ,UZB,Uzbekistan,country,64,41,Tashkent,69.25,41.32,447830.15943964483
VAT,VA,VAT,Vatican City,country,12.45,41.9,Vatican City,12.45,41.9,0.012203829894423484
VAT,VA,VAT,Vatican City,country,12.451,41.904,Vatican City,12.45,41.9,0.012203829894423484
VCT,VC,VCT,St. Vincent & Grenadines,country,-61.194,13.248,Kingstown,-61.22,13.13,367.72526305705827
VCT,VC,VCT,St. Vincent & Grenadines,country,-61.2,13.25,Kingstown,-61.22,13.13,367.72526305705827
VEN,VE,VEN,Venezuela,country,-66.166,7.125,Caracas,-66.87,10.48,912684.3995537218
VEN,VE,VEN,Venezuela,country,-66,8,Caracas,-66.87,10.48,912684.3995537218
VGB,VG,VGB,British Virgin Islands,country,-64.39,18.483,Road Town,-64.62,18.42,144.94117607257522
VGB,VG,VGB,British Virgin Islands,country,-64.5,18.5,Road Town,-64.62,18.42,144.94117607257522
VIR,VI,VIR,U.S. Virgin Islands,country,-64.785,17.741,NA,NA,NA,354.748452079206
VIR,VI,VIR,U.S. Virgin Islands,country,-64.8333333333,18.3333333333,NA,NA,NA,354.748452079206
VNM,VN,VNM,Vietnam,country,105.314,21.491,Hanoi,105.85,21.03,328892.1170819263
VNM,VN,VNM,Vietnam,country,107.833333333,16.1666666667,Hanoi,105.85,21.03,328892.1170819263
VUT,VU,VUT,Vanuatu,country,167,-16,Port-Vila,168.32,-17.73,12296.604102737805
VUT,VU,VUT,Vanuatu,country,166.899,-15.376,Port-Vila,168.32,-17.73,12296.604102737805
WLF,WF,WLF,Wallis & Futuna,country,-176.2,-13.3,Mata-Utu,-171.93,-13.95,139.32915982165002
WLF,WF,WLF,Wallis & Futuna,country,-178.131,-14.289,Mata-Utu,-171.93,-13.95,139.32915982165002
WSM,WS,WSM,Samoa,country,-172.333333333,-13.5833333333,Apia,-171.77,-13.82,2780.412472401772
WSM,WS,WSM,Samoa,country,-172.414,-13.652,Apia,-171.77,-13.82,2780.412472401772
YEM,YE,YEM,Yemen,country,48,15,Sanaa,44.2,15.35,453075.75716205843
YEM,YE,YEM,Yemen,country,48.355,15.807,Sanaa,44.2,15.35,453075.75716205843
ZAF,ZA,ZAF,South Africa,country,23.121,-30.558,Pretoria,28.22,-25.7,1219826.7283745739
ZAF,ZA,ZAF,South Africa,country,24,-29,Pretoria,28.22,-25.7,1219826.7283745739
ZMB,ZM,ZMB,Zambia,country,30,-15,Lusaka,28.28,-15.42,751914.9431398275
ZMB,ZM,ZMB,Zambia,country,26.32,-14.614,Lusaka,28.28,-15.42,751914.9431398275
ZWE,ZW,ZWE,Zimbabwe,country,29.872,-19,Harare,31.03,-17.82,389337.4811096561
ZWE,ZW,ZWE,Zimbabwe,country,30,-20,Harare,31.03,-17.82,389337.4811096561
ABW,AW,ABW-5150,Aruba,province,-69.9689,12.5147,NA,NA,NA,169.76642238220072
AFG,AF,AFG-1741,Badghis,province,63.8495,35.2699,NA,NA,NA,20596.224141066315
AFG,AF,AFG-1742,Hirat,province,62.4845,34.1551,NA,NA,NA,55431.241659685904
AFG,AF,AFG-1743,Bamyan,province,67.2365,34.9693,NA,NA,NA,17728.049361453286
AFG,AF,AFG-1744,Balkh,province,67.2185,36.6851,NA,NA,NA,16022.522387076926
AFG,AF,AFG-1745,Faryab,province,64.7678,35.8043,NA,NA,NA,20729.504378726077
AFG,AF,AFG-1746,Jawzjan,province,65.9617,36.8971,NA,NA,NA,11268.349312059825
AFG,AF,AFG-1747,Ghor,province,64.9224,34.002,NA,NA,NA,36118.85761654701
AFG,AF,AFG-1748,Sari Pul,province,66.2158,35.7062,NA,NA,NA,16128.510455723088
AFG,AF,AFG-1749,Farah,province,62.6498,32.5314,NA,NA,NA,49394.039857536176
AFG,AF,AFG-1750,Hilmand,province,63.9824,30.9278,NA,NA,NA,57299.60944580856
AFG,AF,AFG-1751,Nimroz,province,62.2069,30.7528,NA,NA,NA,42089.75144624838
AFG,AF,AFG-1752,Uruzgan,province,66.0947,32.807,NA,NA,NA,11299.45212609564
AFG,AF,AFG-1753,Uruzgan,province,66.3011,33.8446,NA,NA,NA,17216.648693126004
AFG,AF,AFG-1754,Kandahar,province,65.7163,31.135,NA,NA,NA,53484.3047387165
AFG,AF,AFG-1755,Zabul,province,67.1401,32.4033,NA,NA,NA,17129.451741410816
AFG,AF,AFG-1757,Ghazni,province,67.8006,33.4079,NA,NA,NA,22053.433540531296
AFG,AF,AFG-1758,Khost,province,69.8211,33.363,NA,NA,NA,4033.5659567869216
AFG,AF,AFG-1759,Paktika,province,68.651,32.5106,NA,NA,NA,18819.883046106926
AFG,AF,AFG-1760,Badakhshan,province,70.8036,36.781,NA,NA,NA,43677.01423061841
AFG,AF,AFG-1761,Nuristan,province,70.7567,35.2898,NA,NA,NA,8879.91484770489
AFG,AF,AFG-1762,Kunar,province,71.1061,34.9013,NA,NA,NA,4657.253194693887
AFG,AF,AFG-1763,Kunduz,province,68.682,36.9043,NA,NA,NA,8004.8506211696395
AFG,AF,AFG-1764,Nangarhar,province,70.3027,34.2153,NA,NA,NA,7338.301521800378
AFG,AF,AFG-1765,Takhar,province,69.8124,36.8335,NA,NA,NA,12214.438875787673
AFG,AF,AFG-1766,Baghlan,province,68.9831,35.8588,NA,NA,NA,17859.842437476535
AFG,AF,AFG-1767,Kabul,province,69.3846,34.4949,NA,NA,NA,4419.550537543408
AFG,AF,AFG-1768,Kapisa,province,69.6626,34.9748,NA,NA,NA,1860.3009411873618
AFG,AF,AFG-1769,Parwan,province,69.7587,35.3368,NA,NA,NA,3688.4147414966706
AFG,AF,AFG-1770,Laghman,province,70.2085,34.7273,NA,NA,NA,3894.1351257957876
AFG,AF,AFG-1771,Logar,province,69.3047,34.0857,NA,NA,NA,4458.027175118271
AFG,AF,AFG-1772,Parwan,province,68.8995,34.9984,NA,NA,NA,5611.68349280581
AFG,AF,AFG-1773,Samangan,province,67.683,36.0506,NA,NA,NA,13207.409935016609
AFG,AF,AFG-1774,Wardak,province,68.1087,34.4269,NA,NA,NA,10157.748760784141
AFG,AF,AFG-3413,Paktya,province,69.3826,33.575,NA,NA,NA,5409.327264238078
AGO,AO,AGO-1874,Lunda Norte,province,19.6268,-8.4722,NA,NA,NA,105282.15673022722
AGO,AO,AGO-1875,Lunda Sul,province,20.3821,-10.2341,NA,NA,NA,77678.95567182603
AGO,AO,AGO-1876,Malanje,province,16.9731,-9.14742,NA,NA,NA,85140.11709777683
AGO,AO,AGO-1877,Bengo,province,13.907,-8.99949,NA,NA,NA,33991.591180907504
AGO,AO,AGO-1878,Cuanza Norte,province,14.9458,-9.6988,NA,NA,NA,23730.062075881597
AGO,AO,AGO-1879,Cuanza Sul,province,15.0504,-10.9232,NA,NA,NA,55248.464812873644
AGO,AO,AGO-1880,Luanda,province,13.3166,-8.95941,NA,NA,NA,2802.493246866112
AGO,AO,AGO-1881,Uige,province,15.4475,-6.95896,NA,NA,NA,62069.60782185809
AGO,AO,AGO-1882,Zaire,province,13.6096,-6.78301,NA,NA,NA,36334.5980546943
AGO,AO,AGO-1885,Cabinda,province,12.543,-4.80148,NA,NA,NA,6701.7148037044235
AGO,AO,AGO-1886,Bie,province,17.4921,-12.7997,NA,NA,NA,72138.23151500392
AGO,AO,AGO-1887,Benguela,province,13.8119,-12.7993,NA,NA,NA,39715.483671703805
AGO,AO,AGO-1888,Cuando Cubango,province,19.9218,-16.311,NA,NA,NA,197795.3110438617
AGO,AO,AGO-1889,Cunene,province,15.281,-16.6271,NA,NA,NA,77029.98754307027
AGO,AO,AGO-1890,Huambo,province,15.6947,-12.5587,NA,NA,NA,33129.68326592062
AGO,AO,AGO-1891,Huila,province,14.9844,-14.7348,NA,NA,NA,78767.0367554161
AGO,AO,AGO-1892,Moxico,province,21.0033,-13.281,NA,NA,NA,199093.6231962294
AGO,AO,AGO-1893,Namibe,province,12.6525,-15.8249,NA,NA,NA,58005.15854452071
AIA,AI,AIA-5114,Blowing Point,province,-63.0943,18.1889,NA,NA,NA,10.265530062067777
AIA,AI,AIA-5115,East End,province,-62.9852,18.2622,NA,NA,NA,12.897209513351259
AIA,AI,AIA-5116,George Hill,province,-63.066,18.2089,NA,NA,NA,1.2481977319502084
AIA,AI,AIA-5117,Island Harbour,province,-63.0028,18.2705,NA,NA,NA,0.7609687598319351
AIA,AI,AIA-5118,North Hill,province,-63.074,18.2243,NA,NA,NA,2.880605483390689
AIA,AI,AIA-5119,North Side,province,-63.033,18.2606,NA,NA,NA,7.026354438260078
AIA,AI,AIA-5120,Sandy Ground,province,-63.0814,18.2192,NA,NA,NA,1.145156992324829
AIA,AI,AIA-5121,Sandy Hill,province,-63.0151,18.2301,NA,NA,NA,11.589815874258921
AIA,AI,AIA-5122,South Hill,province,-63.0881,18.2083,NA,NA,NA,7.942520902265623
AIA,AI,AIA-5123,Stoney Ground,province,-63.0368,18.2387,NA,NA,NA,7.651503445115387
AIA,AI,AIA-5124,The Farrington,province,-63.0439,18.2173,NA,NA,NA,6.20121135898462
AIA,AI,AIA-5125,The Quarter,province,-63.04,18.2299,NA,NA,NA,1.1434686796748639
AIA,AI,AIA-5126,The Valley,province,-63.052,18.2321,NA,NA,NA,3.1983017444114683
AIA,AI,AIA-5127,West End,province,-63.1384,18.1865,NA,NA,NA,10.44591067709063
AIA,AI,AIA+99,NA,province,-63.4262,18.5982,NA,NA,NA,NA
ALB,AL,ALB-1494,Durres,province,19.6522,41.5152,NA,NA,NA,805.637422312366
ALB,AL,ALB-1495,Fier,province,19.6047,40.8112,NA,NA,NA,1821.8742240431466
ALB,AL,ALB-1498,Shkoder,province,19.7573,42.2144,NA,NA,NA,3593.7675970875753
ALB,AL,ALB-1502,Kukes,province,20.1933,42.0902,NA,NA,NA,2310.2734291703337
ALB,AL,ALB-1504,Vlore,province,19.7946,40.1908,NA,NA,NA,2591.655328565857
ALB,AL,ALB-1521,Korce,province,20.6648,40.6138,NA,NA,NA,3589.7296012418824
ALB,AL,ALB-1523,Berat,province,20.0865,40.6441,NA,NA,NA,1820.039728070065
ALB,AL,ALB-1524,Elbasan,province,20.1358,41.0299,NA,NA,NA,3243.957073466839
ALB,AL,ALB-1525,Gjirokaster,province,20.1868,40.1927,NA,NA,NA,2889.2530448005487
ALB,AL,ALB-1526,Diber,province,20.1772,41.608,NA,NA,NA,2412.027797719492
ALB,AL,ALB-1528,Lezhe,province,19.8649,41.824,NA,NA,NA,1626.9713942444473
ALB,AL,ALB-1529,Durres,province,19.8383,41.1326,NA,NA,NA,1630.6715339700584
ALD,NA,ALD-3137,Finstrom,province,19.9284,60.2446,NA,NA,NA,NA
ALD,NA,ALD-4810,Jomala,province,19.8953,60.1395,NA,NA,NA,121.44447664828492
ALD,NA,ALD-4811,Hammarland,province,19.753,60.1906,NA,NA,NA,NA
ALD,NA,ALD-4812,Eckero,province,19.5905,60.2169,NA,NA,NA,77.99748970381188
ALD,NA,ALD-4813,Geta,province,19.8533,60.3722,NA,NA,NA,NA
ALD,NA,ALD-4814,Foglo,province,20.3479,60.0019,NA,NA,NA,75.751091516747
ALD,NA,ALD-4815,Saltvik,province,20.0899,60.322,NA,NA,NA,NA
ALD,NA,ALD-4816,Sund,province,20.2117,60.2575,NA,NA,NA,NA
ALD,NA,ALD-4817,Mariehamn,province,19.9417,60.0903,NA,NA,NA,8.601615014728546
ALD,NA,ALD-4818,Lemland,province,20.1496,60.0449,NA,NA,NA,78.7119505498457
ALD,NA,ALD-4819,Lumparland,province,20.2285,60.1022,NA,NA,NA,30.147230115882873
ALD,NA,ALD-4820,Vardo,province,20.4053,60.2456,NA,NA,NA,22.855796628879546
ALD,NA,ALD-4821,Sottunga,province,20.6633,60.1333,NA,NA,NA,8.682536331196308
ALD,NA,ALD-4822,Kumlinge,province,20.8067,60.2647,NA,NA,NA,36.19397013218784
ALD,NA,ALD-4823,Brando,province,21.048,60.4104,NA,NA,NA,5.260724569629669
ALD,NA,ALD-4824,Kokar,province,20.8903,59.923,NA,NA,NA,18.705869946416854
AND,AD,AND-4876,Andorra la Vella,province,1.51066,42.5128,NA,NA,NA,14.496486010956763
AND,AD,AND-4877,La Massana,province,1.47083,42.55,NA,NA,NA,72.4973489470017
AND,AD,AND-4878,Ordino,province,1.52437,42.6036,NA,NA,NA,76.45785851343155
AND,AD,AND-4879,Canillo,province,1.60543,42.5842,NA,NA,NA,74.20391797859645
AND,AD,AND-4880,Encamp,province,1.6441,42.5381,NA,NA,NA,71.45310082636357
AND,AD,AND-4881,Escaldes-Engordany,province,1.59428,42.495,NA,NA,NA,66.2216037475996
AND,AD,AND-4882,Sant Julia de Loria,province,1.47975,42.4511,NA,NA,NA,76.91898923137713
ARE,AE,ARE-338,Ras Al Khaymah,province,55.9791,25.6964,NA,NA,NA,2567.418290546919
ARE,AE,ARE-339,Umm Al Qaywayn,province,55.7217,25.5218,NA,NA,NA,750.557605626196
ARE,AE,ARE-341,Fujayrah,province,56.2221,25.4752,NA,NA,NA,1705.3649519400874
ARE,AE,ARE-344,Neutral Zone,province,56.2932,24.925,NA,NA,NA,13.2717715125345
ARE,AE,ARE-346,Ajman,province,55.5411,25.3971,NA,NA,NA,150.26057114009345
ARE,AE,ARE-347,Neutral Zone,province,56.0315,24.8164,NA,NA,NA,124.20388529877185
ARE,AE,ARE-348,Sharjah,province,55.7788,25.172,NA,NA,NA,2583.660582661209
ARE,AE,ARE-349,Abu Dhabi,province,54.0817,23.5238,NA,NA,NA,59354.34961169619
ARE,AE,ARE-350,Dubay,province,55.3436,24.9508,NA,NA,NA,3870.057373996941
ARG,AR,ARG-1271,Santa Cruz,province,-69.6596,-49.0428,NA,NA,NA,244142.5182667
ARG,AR,ARG-1272,Tierra del Fuego,province,-67.5329,-54.3887,NA,NA,NA,21079.347518288832
ARG,AR,ARG-1273,San Juan,province,-68.6612,-30.97,NA,NA,NA,87851.28044151783
ARG,AR,ARG-1274,Chubut,province,-67.8642,-43.9995,NA,NA,NA,225213.4658167178
ARG,AR,ARG-1275,Mendoza,province,-68.5423,-34.8484,NA,NA,NA,150803.95448542864
ARG,AR,ARG-1276,NeuQuen,province,-69.9833,-38.3579,NA,NA,NA,94685.52690781436
ARG,AR,ARG-1295,Buenos Aires,province,-60.1133,-36.6734,NA,NA,NA,306094.2758391244
ARG,AR,ARG-1296,La Pampa,province,-65.8386,-37.3861,NA,NA,NA,142670.45776011026
ARG,AR,ARG-1297,Rio Negro,province,-67.3641,-40.1261,NA,NA,NA,202639.84042156144
ARG,AR,ARG-1298,San Luis,province,-66.135,-33.9469,NA,NA,NA,77364.17216338361
ARG,AR,ARG-1299,Cordoba,province,-63.7501,-32.3275,NA,NA,NA,168142.39475498695
ARG,AR,ARG-1300,Catamarca,province,-67.0086,-26.7709,NA,NA,NA,101392.5206430326
ARG,AR,ARG-1301,Jujuy,province,-65.7054,-23.1764,NA,NA,NA,53615.45511220839
ARG,AR,ARG-1302,La Rioja,province,-67.5283,-29.3762,NA,NA,NA,90435.85523576388
ARG,AR,ARG-1303,Salta,province,-64.4715,-25.0203,NA,NA,NA,155449.4055155089
ARG,AR,ARG-1304,Santiago del Estero,province,-63.445,-27.6882,NA,NA,NA,134924.36909229477
ARG,AR,ARG-1305,Tucuman,province,-65.3387,-26.9711,NA,NA,NA,22832.97336410532
ARG,AR,ARG-1306,Chaco,province,-60.8752,-26.509,NA,NA,NA,99291.93615573822
ARG,AR,ARG-1307,Formosa,province,-59.9494,-24.9146,NA,NA,NA,75916.84916007586
ARG,AR,ARG-1308,Corrientes,province,-57.6482,-28.8387,NA,NA,NA,89089.4487180312
ARG,AR,ARG-1309,Entre Rios,province,-59.2824,-32.0275,NA,NA,NA,78186.37118321385
ARG,AR,ARG-1310,Santa Fe,province,-60.8593,-30.7764,NA,NA,NA,132674.48319628142
ARG,AR,ARG-1312,Misiones,province,-54.8406,-27.1262,NA,NA,NA,29432.492909519304
ARG,AR,ARG-5493,Ciudad de Buenos Aires,province,-58.4527,-34.6202,NA,NA,NA,376.5051768802681
ARM,AM,ARM-1553,Aragatsotn,province,44.0736,40.3213,NA,NA,NA,2720.5210892808773
ARM,AM,ARM-1554,Armavir,province,44.0464,40.0992,NA,NA,NA,1247.0241136180039
ARM,AM,ARM-1555,Shirak,province,43.8178,40.8194,NA,NA,NA,2886.927779743988
ARM,AM,ARM-1670,Tavush,province,45.1763,40.8883,NA,NA,NA,2626.273599227003
ARM,AM,ARM-1671,Ararat,province,44.7304,39.9204,NA,NA,NA,1974.1412328523206
ARM,AM,ARM-1672,Gegharkunik,province,45.3848,40.278,NA,NA,NA,5271.933319736401
ARM,AM,ARM-1673,Kotayk,province,44.7191,40.3747,NA,NA,NA,2123.3109743170507
ARM,AM,ARM-1674,Lori,province,44.4524,40.9347,NA,NA,NA,3736.4187498048323
ARM,AM,ARM-1675,Erevan,province,44.533,40.1474,NA,NA,NA,216.89508390500356
ARM,AM,ARM-1732,Syunik,province,46.1518,39.2479,NA,NA,NA,4404.059946086878
ARM,AM,ARM-1733,Vayots Dzor,province,45.4421,39.7183,NA,NA,NA,2380.7762951372624
ASM,AS,ASM-4998,Eastern,province,-170.639,-14.272,NA,NA,NA,54.34156024465322
ASM,AS,ASM-4999,Manu s,province,-169.493,-14.2338,NA,NA,NA,45.967385327895165
ASM,AS,ASM-5000,Rose Atoll,province,-168.166,-14.525,NA,NA,NA,1.0177168057222366
ASM,AS,ASM-5001,Swain s Island,province,-171.08,-11.0577,NA,NA,NA,1.8665217400114535
ASM,AS,ASM-5002,Western,province,-170.768,-14.3241,NA,NA,NA,77.11191348307705
ATA,AQ,ATA+00,Antarctica,province,0.238256,-81.6905,NA,NA,NA,NA
ATA,AQ,ATA+99,NA,province,-170.343,-83.0384,NA,NA,NA,NA
ATC,NA,ATC+00,Ashmore and Cartier Islands,province,123.586,-12.4325,NA,NA,NA,NA
ATF,TF,ATF-5916,Archipel des Kerguelen,province,69.2725,-49.3179,NA,NA,NA,6986.814575532961
ATF,TF,ATF-5917,Archipel des Crozet,province,51.7536,-46.3974,NA,NA,NA,205.2753560554056
ATF,TF,ATF-5918,Iles Saint-Paul et Nouvelle-Amsterdam,province,77.5353,-37.861,NA,NA,NA,62.925633130483625
ATF,TF,ATF-5919,Iles Eparses de l ocean Indien,province,42.7449,-17.0638,NA,NA,NA,25.083383569063546
ATG,AG,ATG-5091,Barbuda,province,-61.792,17.6155,NA,NA,NA,169.53872260992432
ATG,AG,ATG-5092,Redonda,province,-62.3467,16.9335,NA,NA,NA,0.3691296108067036
ATG,AG,ATG-5093,Saint George,province,-61.7804,17.1084,NA,NA,NA,27.872143779991806
ATG,AG,ATG-5094,Saint Peter,province,-61.7404,17.0935,NA,NA,NA,31.642656967928886
ATG,AG,ATG-5095,Saint Philip,province,-61.7021,17.0601,NA,NA,NA,37.94346555084896
ATG,AG,ATG-5096,Saint Paul,province,-61.7671,17.0352,NA,NA,NA,50.729224808474065
ATG,AG,ATG-5097,Saint Mary,province,-61.857,17.0368,NA,NA,NA,57.992200205924036
ATG,AG,ATG-5098,Saint John,province,-61.8237,17.1101,NA,NA,NA,75.76177494175768
AUS,AU,AUS-1932,Jervis Bay Territory,province,150.692,-35.1532,NA,NA,NA,75.98249328170013
AUS,AU,AUS-2650,Northern Territory,province,133.78,-20.1026,NA,NA,NA,1348472.0108937104
AUS,AU,AUS-2651,Western Australia,province,121.646,-25.8483,NA,NA,NA,2528141.330591841
AUS,AU,AUS-2653,Australian Capital Territory,province,148.983,-35.4618,NA,NA,NA,2349.173315178091
AUS,AU,AUS-2654,New South Wales,province,146.781,-32.4751,NA,NA,NA,801923.902614268
AUS,AU,AUS-2655,South Australia,province,135.783,-29.6504,NA,NA,NA,983869.1249268358
AUS,AU,AUS-2656,Victoria,province,144.75,-37.0082,NA,NA,NA,227944.88007338473
AUS,AU,AUS-2657,Queensland,province,144.778,-23.1364,NA,NA,NA,1730150.2676247377
AUS,AU,AUS-2659,Norfolk Island,province,159.076,-31.586,NA,NA,NA,14.249631923548579
AUS,AU,AUS-2660,Tasmania,province,146.603,-42.1383,NA,NA,NA,68115.06473837057
AUS,AU,AUS+00,MacQuarie Island,province,158.898,-54.5929,NA,NA,NA,NA
AUT,AT,AUT-2320,Vorarlberg,province,9.87375,47.2617,NA,NA,NA,2602.3982057814133
AUT,AT,AUT-2322,Burgenland,province,16.3584,47.4281,NA,NA,NA,3982.9059773054773
AUT,AT,AUT-2323,Steiermark,province,14.8565,47.3901,NA,NA,NA,16439.731279090956
AUT,AT,AUT-2325,Karnten,province,13.8695,46.7201,NA,NA,NA,9646.185646567774
AUT,AT,AUT-2326,Oberosterreich,province,13.856,48.2377,NA,NA,NA,11885.742819461653
AUT,AT,AUT-2327,Salzburg,province,13.0106,47.2534,NA,NA,NA,7205.544780158923
AUT,AT,AUT-2329,Tirol,province,11.38,47.2082,NA,NA,NA,12721.883835446153
AUT,AT,AUT-2330,Niederosterreich,province,15.7448,48.2477,NA,NA,NA,19098.889857734703
AUT,AT,AUT-2331,Wien,province,16.3798,48.2247,NA,NA,NA,409.9127845227232
AZE,AZ,AZE-1676,Agstafa,province,45.4341,41.1896,NA,NA,NA,1354.840842226667
AZE,AZ,AZE-1677,DaSkesen,province,46.0228,40.4837,NA,NA,NA,995.5014643207851
AZE,AZ,AZE-1678,Gedebey,province,45.6429,40.492,NA,NA,NA,1267.566486609725
AZE,AZ,AZE-1679,Gence,province,46.3206,40.6864,NA,NA,NA,73.15195275498009
AZE,AZ,AZE-1680,Xanlar,province,46.295,40.4627,NA,NA,NA,997.0714250002899
AZE,AZ,AZE-1681,Goranboy,province,46.645,40.5463,NA,NA,NA,1846.63058463243
AZE,AZ,AZE-1682,Kelbecer,province,46.1688,40.0966,NA,NA,NA,2771.008176894943
AZE,AZ,AZE-1683,Mingecevir,province,46.9846,40.7508,NA,NA,NA,38.09698033311272
AZE,AZ,AZE-1684,Qazax,province,45.2004,41.0778,NA,NA,NA,750.1806208510077
AZE,AZ,AZE-1685,Semkir,province,46.0161,40.8317,NA,NA,NA,1681.6545265282098
AZE,AZ,AZE-1686,Samux,province,46.4234,40.8795,NA,NA,NA,1394.6477981884746
AZE,AZ,AZE-1687,Tovuz,province,45.8238,41.0669,NA,NA,NA,1781.260303738239
AZE,AZ,AZE-1688,Yevlakh Rayon,province,46.9101,40.6958,NA,NA,NA,1449.2289909790707
AZE,AZ,AZE-1689,Baki,province,50.0435,40.4447,NA,NA,NA,2364.7863775867168
AZE,AZ,AZE-1690,AbSeron,province,49.3694,40.3278,NA,NA,NA,1961.193933090231
AZE,AZ,AZE-1691,Agdam,province,46.9918,40.0455,NA,NA,NA,1067.5782860351676
AZE,AZ,AZE-1692,AgdaS,province,47.4132,40.568,NA,NA,NA,1040.5185816185865
AZE,AZ,AZE-1693,Agsu,province,48.3659,40.5091,NA,NA,NA,1078.2002681936588
AZE,AZ,AZE-1694,Hajigabul,province,48.8984,40.1106,NA,NA,NA,1904.3741249606933
AZE,AZ,AZE-1695,Astara,province,48.7049,38.4938,NA,NA,NA,481.8247609524231
AZE,AZ,AZE-1696,Berde,province,47.2467,40.3534,NA,NA,NA,1157.4915212087735
AZE,AZ,AZE-1697,BeyleQan,province,47.6611,39.7591,NA,NA,NA,1053.2009933509007
AZE,AZ,AZE-1698,Bilesuvar,province,48.3681,39.4604,NA,NA,NA,1394.1146726987772
AZE,AZ,AZE-1699,Cebrayil,province,46.9823,39.2768,NA,NA,NA,850.4446881721973
AZE,AZ,AZE-1700,Celilabad,province,48.4338,39.1757,NA,NA,NA,1625.5077304184151
AZE,AZ,AZE-1701,Deveci,province,48.9074,41.1969,NA,NA,NA,1247.6934909398617
AZE,AZ,AZE-1702,Fuzuli,province,47.322,39.5574,NA,NA,NA,1248.481273852403
AZE,AZ,AZE-1703,Goycay,province,47.8172,40.569,NA,NA,NA,721.3709889711495
AZE,AZ,AZE-1704,ImiSli,province,48.0606,39.9121,NA,NA,NA,1986.1649919711897
AZE,AZ,AZE-1705,Ismayilli,province,48.1125,40.7896,NA,NA,NA,2062.597023335331
AZE,AZ,AZE-1706,Kurdemir,province,48.1586,40.2443,NA,NA,NA,1600.3873446127948
AZE,AZ,AZE-1707,Lankaran,province,48.7309,38.7168,NA,NA,NA,990.6174339151173
AZE,AZ,AZE-1708,Masalli,province,48.698,38.9858,NA,NA,NA,807.8016411026525
AZE,AZ,AZE-1709,Lerik,province,48.4779,38.7139,NA,NA,NA,1158.8071770001868
AZE,AZ,AZE-1710,Neftcala,province,49.0585,39.3924,NA,NA,NA,1455.4389081074848
AZE,AZ,AZE-1711,Qobustan,province,48.9623,40.4977,NA,NA,NA,1479.2457098594666
AZE,AZ,AZE-1712,Siyezen,province,49.0973,41.0414,NA,NA,NA,869.2627328571834
AZE,AZ,AZE-1713,Saatli,province,48.4591,39.7892,NA,NA,NA,1150.6791936168822
AZE,AZ,AZE-1714,Sabirabad,province,48.8122,39.8179,NA,NA,NA,1587.8243457961387
AZE,AZ,AZE-1715,Salyan,province,49.0495,39.7198,NA,NA,NA,1828.0895716612092
AZE,AZ,AZE-1716,Samaxi,province,48.5986,40.3768,NA,NA,NA,1343.8222759046973
AZE,AZ,AZE-1717,SumQayit,province,49.5962,40.5841,NA,NA,NA,123.21525026011848
AZE,AZ,AZE-1718,Ucar,province,47.729,40.3925,NA,NA,NA,762.9675436075669
AZE,AZ,AZE-1719,Xizi,province,49.154,40.7249,NA,NA,NA,1885.150679149296
AZE,AZ,AZE-1720,Yardimli,province,48.269,38.866,NA,NA,NA,856.1656898132534
AZE,AZ,AZE-1721,Zerdab,province,47.693600000000004,40.2395,NA,NA,NA,695.3525828137016
AZE,AZ,AZE-1722,Agcabedi,province,47.4145,39.971,NA,NA,NA,1838.9910318389664
AZE,AZ,AZE-1723,Balaken,province,46.4478,41.7393,NA,NA,NA,875.4771964803581
AZE,AZ,AZE-1724,Qebele,province,47.7784,40.9578,NA,NA,NA,1515.8051270238495
AZE,AZ,AZE-1725,Oguz,province,47.4853,41.04,NA,NA,NA,1166.216082401286
AZE,AZ,AZE-1726,Qax,province,46.7976,41.375,NA,NA,NA,1460.5197355055313
AZE,AZ,AZE-1727,Seki,province,47.1565,41.0486,NA,NA,NA,2351.9648370256027
AZE,AZ,AZE-1728,Quba,province,48.3368,41.1847,NA,NA,NA,2561.551386257971
AZE,AZ,AZE-1729,Qusar,province,48.1944,41.4005,NA,NA,NA,1206.2894909653417
AZE,AZ,AZE-1730,Xacmaz,province,48.7701,41.5198,NA,NA,NA,1329.7600654960575
AZE,AZ,AZE-1731,ZaQatala,province,46.654,41.5666,NA,NA,NA,1435.771372264925
AZE,AZ,AZE-1734,Xocavend,province,46.99,39.6307,NA,NA,NA,1520.8979488934478
AZE,AZ,AZE-1735,Lankaran,province,46.3095,39.7717,NA,NA,NA,1763.7713357930832
AZE,AZ,AZE-1736,Qubadli,province,46.5917,39.3434,NA,NA,NA,740.881841663889
AZE,AZ,AZE-1737,SuSa,province,46.658,39.7027,NA,NA,NA,356.1349848448143
AZE,AZ,AZE-1738,Terter,province,46.7929,40.2547,NA,NA,NA,1261.0635166819077
AZE,AZ,AZE-1739,Xocali,province,46.6804,39.8925,NA,NA,NA,900.6511086735726
AZE,AZ,AZE-1740,Zengilan,province,46.6305,39.0904,NA,NA,NA,746.7834794621964
AZE,AZ,AZE-2415,Sederek,province,44.8638,39.699,NA,NA,NA,63.92592531726837
AZE,AZ,AZE-2418,Ordubad,province,45.9272,39.0972,NA,NA,NA,826.4787297370167
AZE,AZ,AZE-2419,Serur,province,45.0172,39.5929,NA,NA,NA,750.2549636183586
AZE,AZ,AZE-2420,Babek,province,45.3373,39.1871,NA,NA,NA,1037.176476353279
AZE,AZ,AZE-2421,Culfa,province,45.6847,39.136,NA,NA,NA,961.7770990765505
AZE,AZ,AZE-2422,Naxcivan,province,45.4212,39.2127,NA,NA,NA,94.80348208713913
AZE,AZ,AZE-2423,Sahbuz,province,45.5799,39.4227,NA,NA,NA,769.3520398767881
AZE,AZ,AZE-4838,Stepanakert,province,46.7662,39.8285,NA,NA,NA,22.87168461705017
AZE,AZ,AZE-5561,Naftalan,province,46.8275,40.5077,NA,NA,NA,4.498250292191505
AZE,AZ,AZE-5562,Lankaran,province,48.8421,38.7585,NA,NA,NA,15.583663650972367
AZE,AZ,AZE-5563,Shirvan,province,48.9257,39.9474,NA,NA,NA,53.70636440909958
AZE,AZ,AZE-5564,Seki,province,47.1885,41.1882,NA,NA,NA,37.91624287863636
AZE,AZ,AZE-5565,SuSa,province,46.7523,39.7618,NA,NA,NA,7.295421899873734
AZE,AZ,AZE-5566,Yevlakh,province,47.1503,40.6019,NA,NA,NA,51.3693785012703
AZE,AZ,AZE-5567,Kangarli,province,45.1447,39.4039,NA,NA,NA,279.0763297623424
BDI,BI,BDI-2632,Cankuzo,province,30.5612,-3.11103,NA,NA,NA,1799.260766869318
BDI,BI,BDI-2633,Karuzi,province,30.1146,-3.14444,NA,NA,NA,1360.4504829780476
BDI,BI,BDI-2634,Rutana,province,30.1331,-3.84824,NA,NA,NA,1680.5368875975726
BDI,BI,BDI-2635,Ruyigi,province,30.3391,-3.44273,NA,NA,NA,2189.6019053420227
BDI,BI,BDI-2636,Bubanza,province,29.3862,-3.1045,NA,NA,NA,1116.9533057227293
BDI,BI,BDI-2637,Bururi,province,29.5672,-3.85152,NA,NA,NA,3366.383342849509
BDI,BI,BDI-2638,Cibitoke,province,29.2407,-2.86742,NA,NA,NA,1636.206944798445
BDI,BI,BDI-2639,Gitega,province,29.9159,-3.48983,NA,NA,NA,1835.8955342687932
BDI,BI,BDI-2640,Kayanza,province,29.6613,-3.02498,NA,NA,NA,1104.2434142643576
BDI,BI,BDI-2641,Makamba,province,29.771,-4.21622,NA,NA,NA,2448.047270175181
BDI,BI,BDI-2642,Ngozi,province,29.896,-2.86902,NA,NA,NA,1455.8189873019057
BDI,BI,BDI-2643,Kirundo,province,30.1647,-2.56414,NA,NA,NA,1948.705750237597
BDI,BI,BDI-2644,Muyinga,province,30.3161,-2.89215,NA,NA,NA,1677.4596558541703
BDI,BI,BDI-3364,Bujumbura Mairie,province,29.3689,-3.39861,NA,NA,NA,466.166676279357
BDI,BI,BDI-3365,Muramvya,province,29.668,-3.2533,NA,NA,NA,827.3008741100922
BDI,BI,BDI-4854,Bujumbura Rural,province,29.4237,-3.61843,NA,NA,NA,1372.021153029973
BDI,BI,BDI-5588,Mwaro,province,29.6943,-3.51787,NA,NA,NA,756.2115148718792
BEL,BE,BEL-2,Hainaut,province,3.88925,50.521,NA,NA,NA,3981.3025110213825
BEL,BE,BEL-3,Limburg,province,5.41314,50.9954,NA,NA,NA,2364.5512484239825
BEL,BE,BEL-3474,Brussels,province,4.36266,50.8332,NA,NA,NA,164.53417709715652
BEL,BE,BEL-3475,Flemish Brabant,province,4.53709,50.8709,NA,NA,NA,2123.6874013705647
BEL,BE,BEL-3476,Namur,province,4.88712,50.3244,NA,NA,NA,3721.8205086039507
BEL,BE,BEL-3477,Luxembourg,province,5.50117,49.9637,NA,NA,NA,4436.626802405025
BEL,BE,BEL-3478,East Flanders,province,3.83186,50.9749,NA,NA,NA,2979.1984759957963
BEL,BE,BEL-3479,West Flanders,province,3.02202,51.0312,NA,NA,NA,3281.7935449807414
BEL,BE,BEL-3480,Antwerp,province,4.72122,51.2485,NA,NA,NA,2768.9403659400446
BEL,BE,BEL-3481,Liege,province,5.67651,50.5794,NA,NA,NA,3747.6562275116407
BEL,BE,BEL-3482,Walloon Brabant,province,4.55466,50.6416,NA,NA,NA,1099.7175490281295
BEN,BJ,BEN-2169,Borgou,province,2.90363,9.80668,NA,NA,NA,25623.575242343453
BEN,BJ,BEN-2170,Alibori,province,2.92598,11.4305,NA,NA,NA,26689.2176502456
BEN,BJ,BEN-2171,Collines,province,2.17251,8.00513,NA,NA,NA,14344.609679493251
BEN,BJ,BEN-2174,AtlantiQue,province,2.22263,6.61657,NA,NA,NA,3137.8123767020556
BEN,BJ,BEN-2175,Littoral,province,2.42192,6.36623,NA,NA,NA,57.74470142833716
BEN,BJ,BEN-2176,Kouffo,province,1.81235,6.98499,NA,NA,NA,2740.5222018326995
BEN,BJ,BEN-2177,Oueme,province,2.55171,6.59423,NA,NA,NA,1371.8591389348617
BEN,BJ,BEN-2178,Zou,province,2.09135,7.22681,NA,NA,NA,5087.346343299906
BEN,BJ,BEN-2179,Plateau,province,2.60483,7.15213,NA,NA,NA,3079.0633239459967
BEN,BJ,BEN-2180,Mono,province,1.79465,6.48568,NA,NA,NA,1726.890606618367
BEN,BJ,BEN-2181,Atakora,province,1.55782,10.7035,NA,NA,NA,21249.836029850285
BEN,BJ,BEN-2182,Donga,province,1.77142,9.31506,NA,NA,NA,11005.037298137764
BFA,BF,BFA-2183,Kompienga,province,0.898878,11.4519,NA,NA,NA,7048.529750132326
BFA,BF,BFA-2184,Gourma,province,0.610382,12.0677,NA,NA,NA,11162.313298847263
BFA,BF,BFA-2799,Houet,province,-4.18998,11.3355,NA,NA,NA,11436.851653719013
BFA,BF,BFA-2800,Kenedougou,province,-5.02728,11.4128,NA,NA,NA,8426.825030721766
BFA,BF,BFA-2801,Banwa,province,-4.10849,12.1648,NA,NA,NA,5933.162163904645
BFA,BF,BFA-2802,Kossi,province,-3.88894,12.9587,NA,NA,NA,7419.48038014877
BFA,BF,BFA-2803,Bale,province,-3.06879,11.8279,NA,NA,NA,4688.139103517523
BFA,BF,BFA-2804,Mou Houn,province,-3.38675,12.3486,NA,NA,NA,7024.055066919666
BFA,BF,BFA-2805,Oudalan,province,-0.411597,14.5769,NA,NA,NA,10000.971699461701
BFA,BF,BFA-2806,Soum,province,-1.31801,14.2352,NA,NA,NA,12785.437300980131
BFA,BF,BFA-2807,Nayala,province,-3.03318,12.6594,NA,NA,NA,3833.0114708073866
BFA,BF,BFA-2808,Sourou,province,-2.95968,13.2875,NA,NA,NA,6189.810935668284
BFA,BF,BFA-2811,Bam,province,-1.57778,13.4455,NA,NA,NA,4225.714967479076
BFA,BF,BFA-2812,Boulkiemde,province,-2.13572,12.3143,NA,NA,NA,4213.125192438737
BFA,BF,BFA-2813,Kourweogo,province,-1.8367,12.3933,NA,NA,NA,1675.76435068289
BFA,BF,BFA-2814,Bazega,province,-1.46488,11.9332,NA,NA,NA,3965.6029410033884
BFA,BF,BFA-2815,Kadiogo,province,-1.4662,12.3267,NA,NA,NA,2833.736724837394
BFA,BF,BFA-2816,Oubritenga,province,-1.28565,12.6477,NA,NA,NA,2805.9834545756685
BFA,BF,BFA-2817,Passore,province,-2.10662,12.8734,NA,NA,NA,3777.9952787029697
BFA,BF,BFA-2818,Zondoma,province,-2.38127,13.1939,NA,NA,NA,1776.781322209231
BFA,BF,BFA-2819,Sanguie,province,-2.57298,12.2508,NA,NA,NA,5242.025686697661
BFA,BF,BFA-2820,Sissili,province,-2.10887,11.1806,NA,NA,NA,6937.241117963619
BFA,BF,BFA-2821,Ziro,province,-1.83187,11.6131,NA,NA,NA,5243.942217711688
BFA,BF,BFA-2822,Loroum,province,-2.07087,13.8724,NA,NA,NA,3628.4267659166194
BFA,BF,BFA-2823,Yatenga,province,-2.32529,13.6813,NA,NA,NA,7195.056487934288
BFA,BF,BFA-2824,Namentenga,province,-0.504021,13.1697,NA,NA,NA,6463.378050426925
BFA,BF,BFA-2825,Sanmatenga,province,-1.08045,13.227,NA,NA,NA,9256.987849465871
BFA,BF,BFA-2826,Boulgou,province,-0.43666,11.4767,NA,NA,NA,6671.70392078242
BFA,BF,BFA-2827,Koulpelogo,province,0.204257,11.4079,NA,NA,NA,4963.7713910287785
BFA,BF,BFA-2828,Ganzourgou,province,-0.768604,12.2052,NA,NA,NA,4224.222240744145
BFA,BF,BFA-2829,Kouritenga,province,-0.291527,12.1587,NA,NA,NA,2889.3501443404875
BFA,BF,BFA-2830,Nahouri,province,-1.16782,11.2028,NA,NA,NA,3608.615592143964
BFA,BF,BFA-2831,Zoundweogo,province,-0.940234,11.5711,NA,NA,NA,3704.61013687885
BFA,BF,BFA-2832,Bougouriba,province,-3.42349,10.8979,NA,NA,NA,3228.1233141249772
BFA,BF,BFA-2833,Ioba,province,-2.96967,11.0116,NA,NA,NA,2690.4163068355256
BFA,BF,BFA-2834,Tuy,province,-3.40955,11.3659,NA,NA,NA,5758.251966040582
BFA,BF,BFA-2835,Leraba,province,-5.2352,10.5879,NA,NA,NA,3204.363598120916
BFA,BF,BFA-2836,Komoe,province,-4.41757,10.2156,NA,NA,NA,15296.547110535907
BFA,BF,BFA-2837,Poni,province,-3.34011,10.251,NA,NA,NA,8085.828313469731
BFA,BF,BFA-2874,Gnagna,province,0.115257,12.9057,NA,NA,NA,8647.917675670536
BFA,BF,BFA-2875,Komondjari,province,0.775979,12.6971,NA,NA,NA,4914.163743067838
BFA,BF,BFA-2876,Seno,province,-0.07114,13.8673,NA,NA,NA,6743.364506807966
BFA,BF,BFA-2877,Yagha,province,0.664784,13.3228,NA,NA,NA,6380.584664760245
BFA,BF,BFA-2878,Tapoa,province,1.79465,12.0191,NA,NA,NA,14240.571241052216
BFA,BF,BFA-5989,Noumbiel,province,-3.34011,10.251,NA,NA,NA,2326.6373944123047
BGD,BD,BGD-1806,Dhaka,province,90.4053,24.1653,NA,NA,NA,30548.73804884264
BGD,BD,BGD-2432,Khulna,province,89.3708,22.9179,NA,NA,NA,21822.38953420372
BGD,BD,BGD-2475,Barisal,province,90.2369,22.4351,NA,NA,NA,9104.102520074295
BGD,BD,BGD-2476,Chittagong,province,92.1333,22.4245,NA,NA,NA,29223.197418939802
BGD,BD,BGD-2488,Sylhet,province,91.7033,24.6452,NA,NA,NA,11968.857587265155
BGD,BD,BGD-3255,Rajshahi,province,89.0438,24.6664,NA,NA,NA,18843.74208621905
BGD,BD,BGD-5492,Rangpur,province,89.112,25.7571,NA,NA,NA,15392.66641418101
BGR,BG,BGR-2231,Sliven,province,26.2373,42.7164,NA,NA,NA,3572.684431881485
BGR,BG,BGR-2232,Haskovo,province,25.8816,41.8489,NA,NA,NA,4027.9599319707013
BGR,BG,BGR-2233,Stara Zagora,province,25.5689,42.4759,NA,NA,NA,4861.067028662413
BGR,BG,BGR-2234,Pazardzhik,province,24.1391,42.192,NA,NA,NA,4311.204878372703
BGR,BG,BGR-2235,Plovdiv,province,24.8449,42.3061,NA,NA,NA,5566.290027204944
BGR,BG,BGR-2236,Smolyan,province,24.6089,41.6644,NA,NA,NA,3654.912543159215
BGR,BG,BGR-2237,Kardzhali,province,25.5852,41.5377,NA,NA,NA,4073.9067027530295
BGR,BG,BGR-2243,Grad Sofiya,province,23.357,42.679,NA,NA,NA,1244.3258630714379
BGR,BG,BGR-2244,Sofia,province,23.606,42.288,NA,NA,NA,7107.041594464973
BGR,BG,BGR-2245,Pernik,province,22.8519,42.6064,NA,NA,NA,2402.188304559868
BGR,BG,BGR-2246,Gabrovo,province,25.2475,42.9256,NA,NA,NA,2072.146729362854
BGR,BG,BGR-2247,Lovech,province,24.5374,43.0037,NA,NA,NA,4134.384986688307
BGR,BG,BGR-2248,Pleven,province,24.6181,43.4953,NA,NA,NA,4434.737486742527
BGR,BG,BGR-2249,Veliko Tarnovo,province,25.6222,42.8079,NA,NA,NA,4739.009897813346
BGR,BG,BGR-2250,Montana,province,23.1788,43.487,NA,NA,NA,3840.274993203686
BGR,BG,BGR-2251,Vratsa,province,23.832,43.4325,NA,NA,NA,4410.136480174672
BGR,BG,BGR-2252,Kyustendil,province,22.9371,42.2381,NA,NA,NA,3174.811160622772
BGR,BG,BGR-2253,Vidin,province,22.7008,43.8092,NA,NA,NA,3245.3291072069533
BGR,BG,BGR-2254,Burgas,province,27.2597,42.5385,NA,NA,NA,7648.665105424096
BGR,BG,BGR-2255,Yambol,province,26.6096,42.2935,NA,NA,NA,4390.200800330341
BGR,BG,BGR-2256,Razgrad,province,26.5873,43.6291,NA,NA,NA,2581.902267090128
BGR,BG,BGR-2257,Targovishte,province,26.3637,43.2251,NA,NA,NA,2722.689619408233
BGR,BG,BGR-2258,Shumen,province,26.9857,43.2942,NA,NA,NA,3359.660543386002
BGR,BG,BGR-2259,Dobrich,province,27.9018,43.6874,NA,NA,NA,4658.783041073293
BGR,BG,BGR-2260,Varna,province,27.5827,43.2097,NA,NA,NA,3924.7822331907882
BGR,BG,BGR-2261,Silistra,province,27.0072,43.9352,NA,NA,NA,3059.6645241467913
BGR,BG,BGR-2262,Ruse,province,25.9305,43.6211,NA,NA,NA,2837.127349758789
BGR,BG,BGR-3002,Blagoevgrad,province,23.5213,41.743,NA,NA,NA,6704.806194847061
BHR,BH,BHR-4926,Al Janubiyah,province,50.5622,25.9688,NA,NA,NA,395.2389479513675
BHR,BH,BHR-4927,Ash Shamaliyah,province,50.4868,26.1624,NA,NA,NA,143.48155801173974
BHR,BH,BHR-4928,Al Wusta,province,50.5738,26.1373,NA,NA,NA,81.90539154670905
BHR,BH,BHR-4929,Al Manamah,province,50.5777,26.2204,NA,NA,NA,35.38526532196271
BHR,BH,BHR-4930,Al MuharraQ,province,50.6376,26.261,NA,NA,NA,32.09937734742069
BHS,BS,BHS-5009,New Providence,province,-77.4356,25.0149,NA,NA,NA,193.1246527706499
BHS,BS,BHS-5010,City of Freeport,province,-78.6252,26.5339,NA,NA,NA,14.36901997699833
BHS,BS,BHS-5011,West Grand Bahama,province,-78.9085,26.6389,NA,NA,NA,577.4424776816159
BHS,BS,BHS-5012,East Grand Bahama,province,-78.215,26.6596,NA,NA,NA,485.2403662781882
BHS,BS,BHS-5013,Grand Cay,province,-78.3185,27.2289,NA,NA,NA,NA
BHS,BS,BHS-5014,North Abaco,province,-77.6354,26.8873,NA,NA,NA,253.46316976987075
BHS,BS,BHS-5015,Central Abaco,province,-77.1179,26.4215,NA,NA,NA,551.9449591930976
BHS,BS,BHS-5016,South Abaco,province,-77.2421,26.0179,NA,NA,NA,517.2431857495727
BHS,BS,BHS-5017,Moore s Island,province,-77.5526,26.2973,NA,NA,NA,14.041401184079646
BHS,BS,BHS-5018,Berry Islands,province,-77.8527,25.7591,NA,NA,NA,25.788762967051564
BHS,BS,BHS-5019,North Andros,province,-77.9976,24.8276,NA,NA,NA,2474.903362777277
BHS,BS,BHS-5020,Central Andros,province,-77.9355,24.4757,NA,NA,NA,1235.268268563727
BHS,BS,BHS-5021,Mangrove Cay,province,-77.8018,24.0806,NA,NA,NA,439.42430446793554
BHS,BS,BHS-5022,South Andros,province,-77.6043,23.7822,NA,NA,NA,963.8688842226829
BHS,BS,BHS-5023,Black Point,province,-76.3623,24.072,NA,NA,NA,55.46444975346303
BHS,BS,BHS-5024,Exuma,province,-75.9069,23.5855,NA,NA,NA,217.2301773099513
BHS,BS,BHS-5025,Spanish Wells,province,-76.8334,25.5237,NA,NA,NA,7.825152901446343
BHS,BS,BHS-5026,Harbour Island,province,-76.7641,25.5443,NA,NA,NA,3.41784963557148
BHS,BS,BHS-5027,North Eleuthera,province,-76.59,25.4383,NA,NA,NA,178.4147620122185
BHS,BS,BHS-5028,Central Eleuthera,province,-76.176,25.1588,NA,NA,NA,138.9114407678957
BHS,BS,BHS-5029,South Eleuthera,province,-76.1967,24.7344,NA,NA,NA,230.30947885391618
BHS,BS,BHS-5030,Cat Island,province,-75.3894,24.2583,NA,NA,NA,426.07911716044805
BHS,BS,BHS-5031,San Salvador,province,-74.4785,24.0513,NA,NA,NA,156.65761631009818
BHS,BS,BHS-5032,Rum Cay,province,-74.8408,23.6787,NA,NA,NA,91.52710047055197
BHS,BS,BHS-5033,Long Island,province,-74.9132,23.037,NA,NA,NA,458.9547905161991
BHS,BS,BHS-5034,Ragged Island,province,-75.7413,22.2296,NA,NA,NA,15.908793465630472
BHS,BS,BHS-5035,Crooked Island and Long Cay,province,-74.2405,22.7472,NA,NA,NA,345.71063255328653
BHS,BS,BHS-5036,Acklins,province,-74.0024,22.3745,NA,NA,NA,507.11318474405334
BHS,BS,BHS-5037,Mayaguana,province,-73.0295,22.3849,NA,NA,NA,287.08757134736635
BHS,BS,BHS-5038,Inagua,province,-73.3607,21.06,NA,NA,NA,1715.4268365375146
BHS,BS,BHS-5039,Bimini,province,-79.2811,25.7074,NA,NA,NA,21.830095622932912
BHS,BS,BHS-5040,Hope Town,province,-76.9664,26.5321,NA,NA,NA,NA
BIH,BA,BIH-2224,West Bosnia,province,16.8584,43.9773,NA,NA,NA,5261.718676642193
BIH,BA,BIH-2225,Una-Sana,province,16.299,44.6409,NA,NA,NA,4831.615931933304
BIH,BA,BIH-2226,Central Bosnia,province,17.6547,44.1028,NA,NA,NA,3416.8956125380296
BIH,BA,BIH-2227,West Herzegovina,province,17.4063,43.3908,NA,NA,NA,1509.1923924544983
BIH,BA,BIH-2228,Herzegovina-Neretva,province,17.8878,43.3226,NA,NA,NA,4770.9273883178175
BIH,BA,BIH-2887,Tuzla,province,18.5549,44.5325,NA,NA,NA,3053.0898585195428
BIH,BA,BIH-2889,Zenica-Doboj,province,18.2479,44.2843,NA,NA,NA,3424.6359226753293
BIH,BA,BIH-2890,Sarajevo,province,18.3077,43.7991,NA,NA,NA,1408.4104706381784
BIH,BA,BIH-2891,Bosnian Podrinje,province,18.8198,43.6774,NA,NA,NA,542.6209983388543
BIH,BA,BIH-3153,Posavina,province,18.2977,45.06,NA,NA,NA,595.0669971276225
BIH,BA,BIH-4801,Doboj,province,18.0675,44.9307,NA,NA,NA,2329.5317442477226
BIH,BA,BIH-4802,Banja Luka,province,17.2619,44.8146,NA,NA,NA,8888.070752553856
BIH,BA,BIH-4803,Brcko Distrikt,province,18.854,44.8305,NA,NA,NA,153.52766130483138
BIH,BA,BIH-4804,Bijeljina,province,19.1471,44.7513,NA,NA,NA,1284.3061036640697
BIH,BA,BIH-4805,Vlasenica,province,19.0758,44.1968,NA,NA,NA,2205.6966870219994
BIH,BA,BIH-4806,Sarajevo-romanija,province,18.751,43.9275,NA,NA,NA,2169.298413841426
BIH,BA,BIH-4807,Foca,province,18.7352,43.4443,NA,NA,NA,2784.1323561317463
BIH,BA,BIH-4808,Trebinje,province,18.3391,43.1037,NA,NA,NA,3197.796339536906
BJN,NA,BJN-5486,Bajo Nuevo Bank [Petrel Is.],province,-79.8458,15.7919,NA,NA,NA,NA
BLM,BL,BLM-5113,Saint Barthelemy,province,-62.8288,17.9017,NA,NA,NA,24.423261174697878
BLR,BY,BLR-2338,Brest,province,25.3826,52.4289,NA,NA,NA,32942.15258229817
BLR,BY,BLR-2339,Gomel,province,29.5189,52.1969,NA,NA,NA,40674.74111600801
BLR,BY,BLR-2340,Mogilev,province,30.4041,53.8241,NA,NA,NA,28730.925775552056
BLR,BY,BLR-2341,Vitebsk,province,28.6747,55.3073,NA,NA,NA,39911.627690219575
BLR,BY,BLR-2344,Grodno,province,25.0839,53.4855,NA,NA,NA,25174.81048668492
BLR,BY,BLR-2345,Minsk,province,27.4703,53.1945,NA,NA,NA,39458.26983701566
BLR,BY,BLR-4825,City of Minsk,province,27.6424,53.9005,NA,NA,NA,606.6069842352066
BLZ,BZ,BLZ-1323,Belize,province,-88.4189,17.5367,NA,NA,NA,3553.261953093491
BLZ,BZ,BLZ-1324,Cayo,province,-88.8833,16.9902,NA,NA,NA,5249.661041676058
BLZ,BZ,BLZ-1325,Corozal,province,-88.3492,18.1667,NA,NA,NA,1973.6571739900319
BLZ,BZ,BLZ-1326,Orange Walk,province,-88.8552,17.7122,NA,NA,NA,4713.963603182908
BLZ,BZ,BLZ-1355,Stann Creek,province,-88.4963,16.809,NA,NA,NA,2458.6425046036943
BLZ,BZ,BLZ-1356,Toledo,province,-88.8117,16.3761,NA,NA,NA,4350.230078096585
BLZ,BZ,BLZ+99,NA,province,-88.2564,16.1059,NA,NA,NA,NA
BMU,BM,BMU-5134,City of Hamilton,province,-64.7884,32.2938,NA,NA,NA,0.6887121275798749
BMU,BM,BMU-5135,City of Saint George,province,-64.6742,32.3747,NA,NA,NA,0.7778314518852234
BMU,BM,BMU-5136,Devonshire,province,-64.7566,32.3033,NA,NA,NA,6.681144135029673
BMU,BM,BMU-5137,Hamilton,province,-64.7197,32.3454,NA,NA,NA,6.386743863477707
BMU,BM,BMU-5138,Paget,province,-64.7811,32.2784,NA,NA,NA,5.847931453022242
BMU,BM,BMU-5139,Pembroke,province,-64.7997,32.2995,NA,NA,NA,3.8750125420208574
BMU,BM,BMU-5140,Saint George s,province,-64.6998,32.3645,NA,NA,NA,14.531230059658766
BMU,BM,BMU-5141,Sandys,province,-64.8687,32.2985,NA,NA,NA,5.8006396959095
BMU,BM,BMU-5142,Smith s,province,-64.7319,32.3141,NA,NA,NA,4.813394967925071
BMU,BM,BMU-5143,Southampton,province,-64.8375,32.2524,NA,NA,NA,6.11904203426075
BMU,BM,BMU-5144,Warwick,province,-64.8042,32.2658,NA,NA,NA,6.780694098693609
BOL,BO,BOL-1291,Cochabamba,province,-65.6137,-17.2884,NA,NA,NA,56146.9747240661
BOL,BO,BOL-1292,ChuQuisaca,province,-63.9529,-20.0848,NA,NA,NA,51666.44279752937
BOL,BO,BOL-1293,El Beni,province,-64.5806,-14.0358,NA,NA,NA,210226.47011640132
BOL,BO,BOL-1936,La Paz,province,-68.2128,-14.8335,NA,NA,NA,133480.02945575828
BOL,BO,BOL-1937,Oruro,province,-67.5984,-18.7151,NA,NA,NA,55062.15493109015
BOL,BO,BOL-1938,Pando,province,-67.4319,-11.273,NA,NA,NA,63705.11801032513
BOL,BO,BOL-1939,Potosi,province,-66.7701,-20.9033,NA,NA,NA,117801.64343559276
BOL,BO,BOL-1940,Santa Cruz,province,-61.137,-16.5168,NA,NA,NA,362070.8197312637
BOL,BO,BOL-1941,Tarija,province,-63.8005,-21.5039,NA,NA,NA,36650.99253228563
BRA,BR,BRA-1294,Goias,province,-49.5786,-15.863,NA,NA,NA,341247.1036146023
BRA,BR,BRA-1311,Sao Paulo,province,-48.5206,-22.2267,NA,NA,NA,248638.31507282937
BRA,BR,BRA-1313,Pernambuco,province,-37.2958,-8.47283,NA,NA,NA,97630.22073119608
BRA,BR,BRA-576,Acre,province,-70.2976,-8.9285,NA,NA,NA,153862.76477910392
BRA,BR,BRA-592,Amazonas,province,-63.7853,-4.21774,NA,NA,NA,1565684.5373440073
BRA,BR,BRA-593,Maranhao,province,-45.389,-5.01897,NA,NA,NA,326134.4610149842
BRA,BR,BRA-594,Para,province,-52.6491,-4.44313,NA,NA,NA,1230800.069063164
BRA,BR,BRA-595,Rondonia,province,-63.1439,-10.9712,NA,NA,NA,237942.45481441566
BRA,BR,BRA-596,Tocantins,province,-48.2502,-10.223,NA,NA,NA,278973.23895063443
BRA,BR,BRA-599,Distrito Federal,province,-47.7902,-15.7665,NA,NA,NA,5792.223524876936
BRA,BR,BRA-600,Mato Grosso do Sul,province,-54.5502,-20.6756,NA,NA,NA,356041.50987318775
BRA,BR,BRA-601,Minas Gerais,province,-44.4808,-18.5895,NA,NA,NA,586372.1695527317
BRA,BR,BRA-602,Mato Grosso,province,-55.9235,-13.3926,NA,NA,NA,902951.7829707582
BRA,BR,BRA-612,Rio Grande do Sul,province,-53.656,-29.7277,NA,NA,NA,272283.0888952204
BRA,BR,BRA-613,Parana,province,-51.3228,-24.6618,NA,NA,NA,198665.9538889411
BRA,BR,BRA-614,Santa Catarina,province,-51.1586,-27.0392,NA,NA,NA,95097.10617428356
BRA,BR,BRA-621,Ceara,province,-39.3429,-5.37602,NA,NA,NA,150227.5597480956
BRA,BR,BRA-622,Piaui,province,-43.1974,-8.08698,NA,NA,NA,252011.27127833056
BRA,BR,BRA-623,Alagoas,province,-36.6917,-9.77391,NA,NA,NA,27618.91459647805
BRA,BR,BRA-624,Bahia,province,-41.8027,-12.3651,NA,NA,NA,560049.7930648524
BRA,BR,BRA-625,Espirito Santo,province,-40.5436,-19.6916,NA,NA,NA,45805.99341998965
BRA,BR,BRA-626,Paraiba,province,-36.2726,-7.34234,NA,NA,NA,56515.81075427705
BRA,BR,BRA-627,Rio de Janeiro,province,-43.1152,-22.4049,NA,NA,NA,43978.05331389287
BRA,BR,BRA-628,Rio Grande do Norte,province,-36.5472,-5.66157,NA,NA,NA,52811.737259815025
BRA,BR,BRA-629,Sergipe,province,-37.3836,-10.5918,NA,NA,NA,21606.364292547612
BRA,BR,BRA-670,Roraima,province,-61.3325,1.93803,NA,NA,NA,224746.44722005742
BRA,BR,BRA-681,Amapa,province,-51.6842,1.41157,NA,NA,NA,139180.758141573
BRB,BB,BRB-1989,Christ Church,province,-59.538,13.0873,NA,NA,NA,57.431452727171305
BRB,BB,BRB-1990,Saint Andrew,province,-59.5759,13.2551,NA,NA,NA,36.01771878616613
BRB,BB,BRB-1991,Saint George,province,-59.5479,13.1489,NA,NA,NA,44.13999662516445
BRB,BB,BRB-1992,Saint James,province,-59.6259,13.192,NA,NA,NA,42.513322199899136
BRB,BB,BRB-1993,Saint John,province,-59.5039,13.1795,NA,NA,NA,31.225350429561974
BRB,BB,BRB-1994,Saint Joseph,province,-59.5495,13.2118,NA,NA,NA,25.22441191594291
BRB,BB,BRB-1995,Saint Lucy,province,-59.615,13.3177,NA,NA,NA,37.75380955096114
BRB,BB,BRB-1996,Saint Michael,province,-59.6047,13.118,NA,NA,NA,40.110239935084344
BRB,BB,BRB-1997,Saint Peter,province,-59.6109,13.2679,NA,NA,NA,30.323398712711423
BRB,BB,BRB-1998,Saint Philip,province,-59.47,13.1368,NA,NA,NA,64.68165630540017
BRB,BB,BRB-1999,Saint Thomas,province,-59.5898,13.1877,NA,NA,NA,34.8029926105907
BRN,BN,BRN-1181,Belait,province,114.408,4.45555,NA,NA,NA,2769.859623702731
BRN,BN,BRN-1182,Brunei and Muara,province,114.92,4.90214,NA,NA,NA,566.301771355603
BRN,BN,BRN-1183,Temburong,province,115.191,4.60249,NA,NA,NA,1298.9366804276904
BRN,BN,BRN-1184,Tutong,province,114.671,4.64496,NA,NA,NA,1081.59872113605
BTN,BT,BTN-2433,Chhukha,province,89.5247,27.0361,NA,NA,NA,1853.2022975226478
BTN,BT,BTN-2434,Daga,province,89.8444,27.0316,NA,NA,NA,1397.3354606775056
BTN,BT,BTN-2435,Ha,province,89.1233,27.3711,NA,NA,NA,1678.190611848324
BTN,BT,BTN-2436,Paro,province,89.3837,27.4896,NA,NA,NA,1264.9049702393904
BTN,BT,BTN-2437,Gasa,province,89.9133,28.0641,NA,NA,NA,4413.8833408982655
BTN,BT,BTN-2438,Samchi,province,89.0493,27.0219,NA,NA,NA,1688.7961230013161
BTN,BT,BTN-2439,Thimphu,province,89.602,27.4828,NA,NA,NA,1894.86574769483
BTN,BT,BTN-2440,Punakha,province,89.8223,27.6756,NA,NA,NA,964.955044601943
BTN,BT,BTN-2480,Bumthang,province,90.7042,27.7219,NA,NA,NA,2780.1127313742677
BTN,BT,BTN-2481,Chirang,province,90.1671,27.0316,NA,NA,NA,638.2039760374765
BTN,BT,BTN-2482,Geylegphug,province,90.3468,27.0503,NA,NA,NA,2191.3301070860903
BTN,BT,BTN-2483,Lhuntshi,province,91.0822,27.6977,NA,NA,NA,2938.0135655854065
BTN,BT,BTN-2484,Tashi Yangtse,province,91.5121,27.676,NA,NA,NA,1836.2719999114322
BTN,BT,BTN-2485,Shemgang,province,90.8505,27.0763,NA,NA,NA,2107.6660974732904
BTN,BT,BTN-2486,Tongsa,province,90.4811,27.4491,NA,NA,NA,1805.083255089266
BTN,BT,BTN-2487,Wangdi Phodrang,province,90.0915,27.5206,NA,NA,NA,4051.1217692592695
BTN,BT,BTN-2490,Mongar,province,91.2014,27.1956,NA,NA,NA,1977.5190839695986
BTN,BT,BTN-2491,Pemagatsel,province,91.3405,26.9641,NA,NA,NA,474.6627567556174
BTN,BT,BTN-2492,Samdrup Jongkhar,province,91.7328,26.9509,NA,NA,NA,2178.486926113081
BTN,BT,BTN-2493,Tashigang,province,91.734,27.2629,NA,NA,NA,2230.7579516997857
NOR,NO,BVT+00,Bouvet Island,province,3.41677,-54.4151,NA,NA,NA,NA
BWA,BW,BWA-1191,Ghanzi,province,22.7086,-22.1555,NA,NA,NA,114834.04757430099
BWA,BW,BWA-2625,Kgalagadi,province,22.2402,-24.8361,NA,NA,NA,105425.45752111434
BWA,BW,BWA-2629,North-West,province,23.4709,-19.6141,NA,NA,NA,133312.56508703507
BWA,BW,BWA-2630,Central,province,26.6144,-21.8775,NA,NA,NA,146219.8120631313
BWA,BW,BWA-2646,Kgatleng,province,26.4263,-24.2001,NA,NA,NA,7685.619744687622
BWA,BW,BWA-2647,Kweneng,province,24.4879,-23.8665,NA,NA,NA,36908.10903607129
BWA,BW,BWA-2648,South-East,province,25.7446,-24.9869,NA,NA,NA,1616.5792415057097
BWA,BW,BWA-2649,Southern,province,24.3683,-25.0004,NA,NA,NA,26982.090331940897
BWA,BW,BWA-4853,North-East,province,27.4487,-20.9374,NA,NA,NA,5221.382178695136
BWA,BW,BWA-5501,Gaborone,province,25.9171,-24.6239,NA,NA,NA,285.12636375595355
BWA,BW,BWA-5502,Francistown,province,27.5038,-21.1678,NA,NA,NA,90.12583638901329
BWA,BW,BWA-5503,Lobatse,province,25.6842,-25.2144,NA,NA,NA,19.622707218602656
BWA,BW,BWA-5504,Selebi-Phikwe,province,27.8625,-21.9728,NA,NA,NA,34.77904146133661
BWA,BW,BWA-5505,Sowa,province,26.1919,-20.5752,NA,NA,NA,54.78668667412758
BWA,BW,BWA-5506,Jwaneng,province,24.7253,-24.5774,NA,NA,NA,339.097131242098
CAF,CF,CAF-1460,Bangui,province,18.5457,4.38332,NA,NA,NA,93.15148013183975
CAF,CF,CAF-4856,Ombella-M Poko,province,17.802,5.17659,NA,NA,NA,31712.382569264857
CAF,CF,CAF-794,Basse-Kotto,province,21.3019,5.00365,NA,NA,NA,16764.691175747103
CAF,CF,CAF-795,Lobaye,province,17.6819,4.07603,NA,NA,NA,18734.98808355321
CAF,CF,CAF-801,Mambere-Kadei,province,15.8888,4.5324,NA,NA,NA,30104.94997341319
CAF,CF,CAF-802,Sangha-Mbaere,province,16.3383,3.21418,NA,NA,NA,18015.829968178266
CAF,CF,CAF-804,Nana-Mambere,province,15.4564,5.67426,NA,NA,NA,27282.908873106262
CAF,CF,CAF-805,Ouham-Pende,province,16.0108,6.67901,NA,NA,NA,31850.382022701164
CAF,CF,CAF-806,Bamingui-Bangoran,province,20.6318,8.21272,NA,NA,NA,58096.301843295216
CAF,CF,CAF-807,Nana-Grebizi,province,19.4051,7.11882,NA,NA,NA,19697.892746063524
CAF,CF,CAF-808,Kemo,province,19.3143,5.75536,NA,NA,NA,16398.059834405096
CAF,CF,CAF-809,Ouaka,province,20.7064,5.99454,NA,NA,NA,49187.04202194277
CAF,CF,CAF-810,Ouham,province,17.8774,6.92835,NA,NA,NA,53416.1158936481
CAF,CF,CAF-812,Vakaga,province,22.2437,9.8017,NA,NA,NA,45451.35652925765
CAF,CF,CAF-866,Haute-Kotto,province,22.8492,7.48168,NA,NA,NA,85687.86499632087
CAF,CF,CAF-867,Haut-Mbomou,province,25.851,6.15735,NA,NA,NA,55574.31908358198
CAF,CF,CAF-868,Mbomou,province,23.4601,5.48563,NA,NA,NA,59915.88948859623
CAN,CA,CAN-630,Manitoba,province,-97.3828,54.85,NA,NA,NA,652605.0819135107
CAN,CA,CAN-631,Saskatchewan,province,-105.682,54.4965,NA,NA,NA,650876.009897936
CAN,CA,CAN-632,Alberta,province,-115,55.2816,NA,NA,NA,663753.2911717361
CAN,CA,CAN-633,British Columbia,province,-124.662,54.6943,NA,NA,NA,945611.3656048988
CAN,CA,CAN-634,Nunavut,province,-97.1443,64.3853,NA,NA,NA,2079890.9037735772
CAN,CA,CAN-635,Northwest Territories,province,-119.942,64.0831,NA,NA,NA,1348367.4914794653
CAN,CA,CAN-636,Yukon,province,-135.7,63.6088,NA,NA,NA,484475.8716125454
CAN,CA,CAN-682,Ontario,province,-84.7943,50.5244,NA,NA,NA,1077573.1691894291
CAN,CA,CAN-683,Quebec,province,-73.7168,52.2593,NA,NA,NA,1505508.7446591912
CAN,CA,CAN-684,New Brunswick,province,-66.4558,46.5822,NA,NA,NA,72702.58222086114
CAN,CA,CAN-685,Nova Scotia,province,-62.8113,45.2293,NA,NA,NA,55108.37226540215
CAN,CA,CAN-686,Newfoundland and Labrador,province,-56.2169,48.6598,NA,NA,NA,403321.9254779693
CAN,CA,CAN-687,Prince Edward Island,province,-63.3862,46.3417,NA,NA,NA,5732.95808704274
CAN,CA,CAN+99,NA,province,-61.4664,47.7941,NA,NA,NA,NA
CHE,CH,CHE-159,Geneve,province,6.11764,46.237,NA,NA,NA,278.18786928499225
CHE,CH,CHE-160,Jura,province,7.19817,47.3636,NA,NA,NA,848.0784268382492
CHE,CH,CHE-161,Neuchatel,province,6.76076,46.9893,NA,NA,NA,845.9690640687847
CHE,CH,CHE-162,Aargau,province,8.19995,47.4176,NA,NA,NA,1424.7802865219974
CHE,CH,CHE-163,Lucerne,province,8.17219,47.096,NA,NA,NA,1462.5623765294129
CHE,CH,CHE-164,Nidwalden,province,8.40344,46.934,NA,NA,NA,271.65045622485496
CHE,CH,CHE-165,Valais,province,7.61347,46.2023,NA,NA,NA,5298.749476050684
CHE,CH,CHE-166,Appenzell Ausserrhoden,province,9.39726,47.3911,NA,NA,NA,239.23481725803947
CHE,CH,CHE-167,Sankt Gallen,province,9.21267,47.1524,NA,NA,NA,2032.5546662542463
CHE,CH,CHE-168,Ticino,province,8.79019,46.3604,NA,NA,NA,2920.8364270017014
CHE,CH,CHE-169,Glarus,province,9.05651,47.0096,NA,NA,NA,672.6450565141487
CHE,CH,CHE-170,Graubunden,province,9.55953,46.6729,NA,NA,NA,7020.0392002311455
CHE,CH,CHE-171,Schaffhausen,province,8.6232,47.7205,NA,NA,NA,329.27914884650994
CHE,CH,CHE-173,Schwyz,province,8.68573,47.0455,NA,NA,NA,908.8323042980232
CHE,CH,CHE-174,Thurgau,province,9.14593,47.5858,NA,NA,NA,943.3059158225956
CHE,CH,CHE-175,Uri,province,8.63301,46.809,NA,NA,NA,1070.6249237215861
CHE,CH,CHE-176,Zurich,province,8.6609,47.4297,NA,NA,NA,1738.6122834247817
CHE,CH,CHE-177,Zug,province,8.54747,47.1578,NA,NA,NA,238.29579648159884
CHE,CH,CHE-3421,Fribourg,province,6.85219,46.8411,NA,NA,NA,1645.7449822470146
CHE,CH,CHE-3422,Vaud,province,6.5118,46.6204,NA,NA,NA,3312.153328789234
CHE,CH,CHE-3423,Basel-Landschaft,province,7.72662,47.5056,NA,NA,NA,549.3398646968327
CHE,CH,CHE-3424,Bern,province,7.65026,46.7988,NA,NA,NA,5921.92230887444
CHE,CH,CHE-3425,Basel-Stadt,province,7.5898,47.5605,NA,NA,NA,39.94085419311714
CHE,CH,CHE-3426,Solothurn,province,7.41999,47.4325,NA,NA,NA,773.0369820151956
CHE,CH,CHE-3427,Obwalden,province,8.20594,46.8686,NA,NA,NA,483.04094181008577
CHE,CH,CHE-3473,Appenzell Innerrhoden,province,9.39548,47.3092,NA,NA,NA,166.377731107852
CHL,CL,CHL-2691,Aisen del General Carlos IbaNez del Campo,province,-73.3899,-46.8716,NA,NA,NA,103823.99415489279
CHL,CL,CHL-2692,Magallanes y Antartica Chilena,province,-71.3975,-53.4723,NA,NA,NA,121833.61237529
CHL,CL,CHL-2693,Tarapaca,province,-69.3683,-20.2427,NA,NA,NA,41296.68091438958
CHL,CL,CHL-2694,Arica y Parinacota,province,-69.6804,-18.3207,NA,NA,NA,16275.761538307033
CHL,CL,CHL-2695,Antofagasta,province,-68.8739,-23.3178,NA,NA,NA,122878.54889834071
CHL,CL,CHL-2696,Atacama,province,-69.9123,-27.4469,NA,NA,NA,79310.1843500012
CHL,CL,CHL-2697,CoQuimbo,province,-70.7749,-30.5838,NA,NA,NA,37405.749376530766
CHL,CL,CHL-2698,Region Metropolitana de Santiago,province,-70.7527,-33.4568,NA,NA,NA,16079.735421887446
CHL,CL,CHL-2699,Valparaiso,province,-70.936,-32.4884,NA,NA,NA,16822.99815101323
CHL,CL,CHL-2700,La Araucania,province,-72.3806,-38.738,NA,NA,NA,33905.19179606174
CHL,CL,CHL-2701,Los Rios,province,-72.6829,-40.1186,NA,NA,NA,16260.488786948235
CHL,CL,CHL-2702,Bio-Bio,province,-72.3475,-36.9791,NA,NA,NA,38393.680313703255
CHL,CL,CHL-2703,Libertador General Bernardo O Higgins,province,-71.0756,-34.5255,NA,NA,NA,16639.52767283088
CHL,CL,CHL-2704,Los Lagos,province,-72.9043,-41.0592,NA,NA,NA,47390.00742994594
CHL,CL,CHL-2705,Maule,province,-71.5811,-35.6067,NA,NA,NA,28276.603058511817
CHN,CN,CHN-1150,Gansu,province,100.735,38.7393,NA,NA,NA,405597.05641207856
CHN,CN,CHN-1151,Qinghai,province,96.2377,35.2652,NA,NA,NA,714466.7216810068
CHN,CN,CHN-1152,Guangxi,province,108.756,23.7451,NA,NA,NA,237306.71148564058
CHN,CN,CHN-1153,Guizhou,province,106.559,26.8033,NA,NA,NA,175156.79409340656
CHN,CN,CHN-1154,ChongQing,province,107.73,30.0173,NA,NA,NA,82362.78718163619
CHN,CN,CHN-1155,Beijing,province,116.389,39.9488,NA,NA,NA,16251.745054811989
CHN,CN,CHN-1178,Fujian,province,118.178,26.408,NA,NA,NA,120723.71035455693
CHN,CN,CHN-1179,Anhui,province,117.253,31.9537,NA,NA,NA,140193.77480258327
CHN,CN,CHN-1180,Guangdong,province,113.72,23.7924,NA,NA,NA,175489.85136032797
CHN,CN,CHN-1662,Xizang,province,88.4137,31.4515,NA,NA,NA,1129124.7042014038
CHN,CN,CHN-1756,Xinjiang,province,85.4253,41.122,NA,NA,NA,1630215.1552492257
CHN,CN,CHN-1775,Hainan,province,109.825,19.1865,NA,NA,NA,33840.6435120883
CHN,CN,CHN-1803,Ningxia,province,106.038,37.1762,NA,NA,NA,52134.71557280011
CHN,CN,CHN-1804,Shaanxi,province,108.363,33.7713,NA,NA,NA,205731.21979442908
CHN,CN,CHN-1805,Shanxi,province,112.389,37.7586,NA,NA,NA,156093.6727901571
CHN,CN,CHN-1807,Hubei,province,112.264,30.9857,NA,NA,NA,185598.5012737579
CHN,CN,CHN-1808,Hunan,province,111.712,27.6667,NA,NA,NA,211352.3263205095
CHN,CN,CHN-1809,Sichuan,province,102.384,30.5431,NA,NA,NA,484814.8094974277
CHN,CN,CHN-1810,Yunnan,province,101.661,24.4603,NA,NA,NA,385395.81692319165
CHN,CN,CHN-1811,Hebei,province,115.314,38.5205,NA,NA,NA,188969.15319135762
CHN,CN,CHN-1812,Henan,province,113.484,33.9055,NA,NA,NA,166147.00148547266
CHN,CN,CHN-1813,Liaoning,province,123.07,41.386,NA,NA,NA,146514.77232818992
CHN,CN,CHN-1814,Shandong,province,118.114,36.3271,NA,NA,NA,155914.81847077826
CHN,CN,CHN-1816,Tianjin,province,117.347,39.3708,NA,NA,NA,11475.394782391686
CHN,CN,CHN-1817,Jiangxi,province,116.017,27.6397,NA,NA,NA,167798.32909646202
CHN,CN,CHN-1818,Jiangsu,province,119.942,32.9844,NA,NA,NA,100090.85302308592
CHN,CN,CHN-1819,Shanghai,province,121.409,31.0909,NA,NA,NA,6746.10233863598
CHN,CN,CHN-1820,Zhejiang,province,119.97,29.1084,NA,NA,NA,101337.3207340661
CHN,CN,CHN-1828,Jilin,province,126.466,43.2978,NA,NA,NA,191022.49796866305
CHN,CN,CHN-1838,Inner Mongol,province,111.623,41.5938,NA,NA,NA,1144460.8363553598
CHN,CN,CHN-1839,Heilongjiang,province,127.97,46.8451,NA,NA,NA,452258.06040778704
CIV,CI,CIV-3431,Savanes,province,-5.36817,9.82238,NA,NA,NA,40107.30280947092
CIV,CI,CIV-3437,Denguele,province,-7.37781,9.52894,NA,NA,NA,21286.523423581166
CIV,CI,CIV-3440,Bafing,province,-7.67511,8.11221,NA,NA,NA,8681.235729588783
CIV,CI,CIV-3441,Dix-Huit Montagnes,province,-7.73423,7.36283,NA,NA,NA,16617.00450287691
CIV,CI,CIV-3443,Worodougou,province,-6.28956,8.49071,NA,NA,NA,22557.217710301335
CIV,CI,CIV-3444,Marahoue,province,-5.83201,6.94728,NA,NA,NA,8605.119013908252
CIV,CI,CIV-3445,Fromager,province,-5.80631,6.2178,NA,NA,NA,6673.785992718296
CIV,CI,CIV-3446,Haut-Sassandra,province,-6.50859,7.01394,NA,NA,NA,15206.04645161544
CIV,CI,CIV-3447,Sud-Bandama,province,-5.49467,5.63293,NA,NA,NA,10783.987187545206
CIV,CI,CIV-3448,Bas-Sassandra,province,-6.67522,5.47996,NA,NA,NA,26179.947727585914
CIV,CI,CIV-3449,Zanzan,province,-3.41485,8.60755,NA,NA,NA,37841.5231758199
CIV,CI,CIV-3450,Vallee du Bandama,province,-4.85838,8.22668,NA,NA,NA,28312.5284817461
CIV,CI,CIV-3451,Agneby,province,-4.02187,6.06215,NA,NA,NA,9143.658032526897
CIV,CI,CIV-3452,N zi-Comoe,province,-4.23718,7.05528,NA,NA,NA,19462.51855432917
CIV,CI,CIV-3458,Lagunes,province,-4.42852,5.4607,NA,NA,NA,13592.73589383706
CIV,CI,CIV-3459,Moyen-Cavally,province,-7.79453,5.99237,NA,NA,NA,14437.361382816818
CIV,CI,CIV-3460,Moyen-Comoe,province,-3.47724,6.76303,NA,NA,NA,6783.542173784956
CIV,CI,CIV-3461,Lacs,province,-5.15412,6.85184,NA,NA,NA,8804.0035171676
CIV,CI,CIV-3462,Sud-Comoe,province,-3.12754,5.52003,NA,NA,NA,5601.143874372224
CLP,NA,CLP+00,Clipperton Island,province,-109.222,10.2973,NA,NA,NA,NA
CMR,CM,CMR-1462,Extreme-Nord,province,14.5367,10.7227,NA,NA,NA,34791.36053994071
CMR,CM,CMR-1476,Littoral,province,10.0932,4.1938,NA,NA,NA,20114.97690240024
CMR,CM,CMR-1477,Nord-Ouest,province,10.4002,6.34548,NA,NA,NA,17066.772190244345
CMR,CM,CMR-1480,Centre,province,11.7383,4.73268,NA,NA,NA,68693.18092766481
CMR,CM,CMR-1481,Estonia,province,14.1674,3.78379,NA,NA,NA,108808.19402198555
CMR,CM,CMR-1482,Adamaoua,province,13.217,6.80472,NA,NA,NA,61895.46610671354
CMR,CM,CMR-1483,Nord,province,13.8908,8.90981,NA,NA,NA,66697.12810520042
CMR,CM,CMR-798,Ouest,province,10.5889,5.36694,NA,NA,NA,14079.939343871558
CMR,CM,CMR-799,Sud-Ouest,province,9.24481,5.12818,NA,NA,NA,24720.370520598866
CMR,CM,CMR-803,Sud,province,11.731,2.79256,NA,NA,NA,47451.889727230075
COD,CD,COD-1461,eQuateur,province,20.4731,1.21836,NA,NA,NA,404409.11097520683
COD,CD,COD-1559,Orientale,province,26.785,2.40438,NA,NA,NA,500467.4407457771
COD,CD,COD-1871,Bandundu,province,18.4474,-4.61778,NA,NA,NA,295847.56571020966
COD,CD,COD-1872,Kasai-Occidental,province,21.7144,-4.87578,NA,NA,NA,153084.3374442999
COD,CD,COD-1883,Bas-Congo,province,14.2052,-5.31907,NA,NA,NA,54367.70486030982
COD,CD,COD-1884,Kinshasa City,province,15.8492,-4.49522,NA,NA,NA,11063.669849291604
COD,CD,COD-1894,Sud-Kivu,province,28.1159,-3.10474,NA,NA,NA,63440.4738015204
COD,CD,COD-1895,Maniema,province,26.0336,-3.26017,NA,NA,NA,127389.82608964843
COD,CD,COD-1896,Kasai-Oriental,province,24.0842,-4.40511,NA,NA,NA,168855.71969805923
COD,CD,COD-1897,Katanga,province,26.2512,-8.48374,NA,NA,NA,486656.03764788323
COD,CD,COD-1898,Nord-Kivu,province,28.5939,-0.659128,NA,NA,NA,59658.5564679129
COG,CG,COG-2185,Cuvette-Ouest,province,14.558,0.0348606,NA,NA,NA,25451.171129039092
COG,CG,COG-2626,Bouenza,province,13.491,-4.36333,NA,NA,NA,12411.034265465594
COG,CG,COG-2838,Likouala,province,17.5344,1.45488,NA,NA,NA,67077.19357046863
COG,CG,COG-2880,Sangha,province,15.7466,1.12682,NA,NA,NA,57566.43384481192
COG,CG,COG-3341,Pool,province,15.0436,-3.71115,NA,NA,NA,28925.507536268942
COG,CG,COG-3342,Cuvette,province,15.9548,-0.393114,NA,NA,NA,44946.66530394144
COG,CG,COG-3343,Kouilou,province,11.9549,-4.3684,NA,NA,NA,13582.313119321669
COG,CG,COG-3344,Lekoumou,province,13.4727,-3.2378,NA,NA,NA,20904.06283863107
COG,CG,COG-3345,Niari,province,12.3646,-2.97914,NA,NA,NA,28122.492281310297
COG,CG,COG-3346,Plateaux,province,15.3777,-2.04221,NA,NA,NA,39822.437024278464
COG,CG,COG-4855,Brazzaville,province,15.3319,-4.06879,NA,NA,NA,6013.147704925975
COG,CG,COG-5855,Pointe Noire,province,11.859,-4.80537,NA,NA,NA,66.21074416333211
COK,CK,COK-4950,Atiu,province,-158.089,-20.0232,NA,NA,NA,20.971006115785123
COK,CK,COK-4951,Aitutaki,province,-158.892,-19.2709,NA,NA,NA,3.293914924556017
COK,CK,COK-4952,Mangaia,province,-157.909,-21.9367,NA,NA,NA,38.64826533507443
COK,CK,COK-4953,Rarotonga,province,-159.789,-21.2088,NA,NA,NA,64.16480069684887
COK,CK,COK-4954,Mitiaro,province,-157.707,-19.8389,NA,NA,NA,20.182333918002605
COK,CK,COK-4955,Mauke,province,-157.312,-20.1852,NA,NA,NA,12.640332410892963
COK,CK,COK-4956,Palmerston,province,-159.771,-18.8968,NA,NA,NA,14.548309704719305
COK,CK,COK-4959,Pukapuka,province,-165.802,-10.9163,NA,NA,NA,1.4087290950654745
COK,CK,COK-4960,Rakahanga,province,-161.065,-10.0641,NA,NA,NA,1.4321098394218683
COK,CK,COK-4961,Manihiki,province,-160.963,-10.4098,NA,NA,NA,2.4233589266719817
COK,CK,COK-4962,Penrhyn,province,-157.956,-8.99614,NA,NA,NA,11.418731340753794
COL,CO,COL-1283,Amazonas,province,-71.9171,-1.26032,NA,NA,NA,109254.31301929326
COL,CO,COL-1314,AntioQuia,province,-75.5071,6.70366,NA,NA,NA,63351.57822728621
COL,CO,COL-1315,Boyaca,province,-72.933,5.68515,NA,NA,NA,22897.97153948626
COL,CO,COL-1316,Cordoba,province,-75.6522,8.43894,NA,NA,NA,25158.77219579923
COL,CO,COL-1317,Santander,province,-73.4981,6.85402,NA,NA,NA,30768.117486502073
COL,CO,COL-1318,La Guajira,province,-72.6702,11.4245,NA,NA,NA,20500.32596375202
COL,CO,COL-1342,San Andres y Providencia,province,-81.7049,12.5429,NA,NA,NA,38.00435474058062
COL,CO,COL-1397,Caldas,province,-75.2793,5.29037,NA,NA,NA,7364.71171035621
COL,CO,COL-1398,Cundinamarca,province,-74.0613,5.11121,NA,NA,NA,22645.508354270347
COL,CO,COL-1399,Bogota,province,-74.2443,4.08564,NA,NA,NA,1669.9932608873103
COL,CO,COL-1400,Quindio,province,-75.64,4.47197,NA,NA,NA,1885.8592984001054
COL,CO,COL-1401,Risaralda,province,-75.6743,4.82682,NA,NA,NA,3535.1145259720597
COL,CO,COL-1402,Tolima,province,-75.2073,3.93749,NA,NA,NA,24011.62849263582
COL,CO,COL-1403,CaQueta,province,-73.8097,0.615494,NA,NA,NA,90055.56105967549
COL,CO,COL-1404,Cauca,province,-77.277,2.61609,NA,NA,NA,30706.236205716374
COL,CO,COL-1405,Huila,province,-75.5471,2.65469,NA,NA,NA,19035.540349551782
COL,CO,COL-1406,NariNo,province,-77.9777,1.60168,NA,NA,NA,30932.891033277298
COL,CO,COL-1407,Putumayo,province,-75.5514,0.420217,NA,NA,NA,25391.34154423429
COL,CO,COL-1408,Valle del Cauca,province,-76.5923,3.58331,NA,NA,NA,20876.520717488776
COL,CO,COL-1412,Atlantico,province,-74.9941,10.6712,NA,NA,NA,3342.7189959867233
COL,CO,COL-1413,Bolivar,province,-74.1807,8.57823,NA,NA,NA,26463.599131843774
COL,CO,COL-1414,Cesar,province,-73.4339,9.84893,NA,NA,NA,22128.580104493176
COL,CO,COL-1415,Choco,province,-76.7263,5.38283,NA,NA,NA,46828.62111317192
COL,CO,COL-1416,Magdalena,province,-74.3474,10.3731,NA,NA,NA,23025.164899223877
COL,CO,COL-1417,Sucre,province,-75.1319,9.01236,NA,NA,NA,10885.165929692459
COL,CO,COL-1420,Arauca,province,-70.8913,6.64307,NA,NA,NA,23790.201200446758
COL,CO,COL-1421,Norte de Santander,province,-72.8175,8.086,NA,NA,NA,21866.475239683365
COL,CO,COL-1422,Casanare,province,-71.4622,5.46249,NA,NA,NA,43768.437131187
COL,CO,COL-1423,Guaviare,province,-71.8348,1.85144,NA,NA,NA,55038.858143562145
COL,CO,COL-1424,Guainia,province,-68.8925,2.70535,NA,NA,NA,71308.17746986944
COL,CO,COL-1425,Meta,province,-72.9789,3.5302,NA,NA,NA,86220.33575163956
COL,CO,COL-1426,Vaupes,province,-70.5869,0.790971,NA,NA,NA,51750.11184051985
COL,CO,COL-1427,Vichada,province,-69.2414,4.89224,NA,NA,NA,98613.78241238513
COL,CO,COL+99,NA,province,-81.5928,3.97794,NA,NA,NA,NA
COM,KM,COM-4934,Mouhili,province,43.7462,-12.3178,NA,NA,NA,198.9607185580969
COM,KM,COM-4935,Andjazidja,province,43.3378,-11.6952,NA,NA,NA,1024.676307084613
COM,KM,COM-4936,Andjouan,province,44.4518,-12.226,NA,NA,NA,448.58989488436345
CPV,CV,CPV-5041,Brava,province,-24.7204,14.851,NA,NA,NA,59.782010773803236
CPV,CV,CPV-5042,Sao Filipe,province,-24.4403,14.9241,NA,NA,NA,291.49275034989597
CPV,CV,CPV-5043,Mosteiros,province,-24.3541,15.0008,NA,NA,NA,98.02069868988038
CPV,CV,CPV-5044,Santa Catarina do Fogo,province,-24.3301,14.9241,NA,NA,NA,70.71832088982106
CPV,CV,CPV-5045,Tarrafal,province,-23.717,15.2355,NA,NA,NA,134.41394537694026
CPV,CV,CPV-5046,Santa Catarina,province,-23.7027,15.0918,NA,NA,NA,278.66001512511684
CPV,CV,CPV-5047,Sao Miguel,province,-23.6356,15.178,NA,NA,NA,70.19574251611805
CPV,CV,CPV-5048,Santa Cruz,province,-23.5494,15.1157,NA,NA,NA,97.86337485623169
CPV,CV,CPV-5049,Sao Salvador do Mundo,province,-23.6164,15.0678,NA,NA,NA,40.222104384099005
CPV,CV,CPV-5050,Sao Lourenco dos orgaos,province,-23.5781,15.0439,NA,NA,NA,31.976663530023373
CPV,CV,CPV-5051,Sao Domingos,province,-23.5254,15.0152,NA,NA,NA,112.95901602058554
CPV,CV,CPV-5052,Ribeira Grande de Santiago,province,-23.6404,14.9768,NA,NA,NA,139.72285221872926
CPV,CV,CPV-5053,Praia,province,-23.5159,14.9529,NA,NA,NA,55.36982143161249
CPV,CV,CPV-5054,Maio,province,-23.1806,15.2115,NA,NA,NA,268.8251838230867
